$GPRMC,071053.000,A,4647.943,N,00923.949,E,2.93,0.00,030911,,*02
$GPGGA,071053.000,4647.943,N,00923.949,E,1,00,0.0,662.672,M,0.0,M,,*6E
$GPVTG,0.000,T,0,M,2.928,N,5.423,K*51
$GPGSA,A,3,,,,,,,,,,,,,0.0,0.0,0.0*32
$GPRMC,071054.000,A,4647.942,N,00923.950,E,3.38,0.00,030911,,*0C
$GPGGA,071054.000,4647.942,N,00923.950,E,1,00,0.0,663.234,M,0.0,M,,*67
$GPVTG,0.000,T,0,M,3.379,N,6.258,K*57
$GPGSA,A,3,,,,,,,,,,,,,0.0,0.0,0.0*32
$GPRMC,071055.000,A,4647.941,N,00923.949,E,4.01,0.00,030911,,*0B
$GPGGA,071055.000,4647.941,N,00923.949,E,1,00,0.0,662.906,M,0.0,M,,*66
$GPVTG,0.000,T,0,M,4.013,N,7.431,K*57
$GPGSA,A,3,,,,,,,,,,,,,0.0,0.0,0.0*32
$GPRMC,071056.000,A,4647.941,N,00923.948,E,2.22,0.00,030911,,*0E
$GPGGA,071056.000,4647.941,N,00923.948,E,1,00,0.0,661.234,M,0.0,M,,*6D
$GPVTG,0.000,T,0,M,2.222,N,4.116,K*52
$GPGSA,A,3,,,,,,,,,,,,,0.0,0.0,0.0*32
$GPRMC,071057.000,A,4647.940,N,00923.949,E,2.27,0.00,030911,,*0A
$GPGGA,071057.000,4647.940,N,00923.949,E,1,00,0.0,661.094,M,0.0,M,,*64
$GPVTG,0.000,T,0,M,2.266,N,4.197,K*5B
$GPGSA,A,3,,,,,,,,,,,,,0.0,0.0,0.0*32
$GPRMC,071058.000,A,4647.939,N,00923.949,E,2.73,0.00,030911,,*0A
$GPGGA,071058.000,4647.939,N,00923.949,E,1,00,0.0,660.734,M,0.0,M,,*69
$GPVTG,0.000,T,0,M,2.729,N,5.054,K*5A
$GPGSA,A,3,,,,,,,,,,,,,0.0,0.0,0.0*32
$GPRMC,071059.000,A,4647.938,N,00923.949,E,2.87,0.00,030911,,*01
$GPGGA,071059.000,4647.938,N,00923.949,E,1,00,0.0,660.609,M,0.0,M,,*66
$GPVTG,0.000,T,0,M,2.866,N,5.307,K*5B
$GPGSA,A,3,,,,,,,,,,,,,0.0,0.0,0.0*32
$GPRMC,071100.000,A,4647.938,N,00923.948,E,2.82,0.00,030911,,*08
$GPGGA,071100.000,4647.938,N,00923.948,E,1,00,0.0,660.938,M,0.0,M,,*67
$GPVTG,0.000,T,0,M,2.817,N,5.217,K*5D
$GPGSA,A,3,,,,,,,,,,,,,0.0,0.0,0.0*32
$GPRMC,071101.000,A,4647.937,N,00923.949,E,3.43,0.00,030911,,*0B
$GPGGA,071101.000,4647.937,N,00923.949,E,1,00,0.0,661.281,M,0.0,M,,*60
$GPVTG,0.000,T,0,M,3.428,N,6.348,K*54
$GPGSA,A,3,,,,,,,,,,,,,0.0,0.0,0.0*32
$GPRMC,071102.000,A,4647.937,N,00923.949,E,2.85,0.00,030911,,*03
$GPGGA,071102.000,4647.937,N,00923.949,E,1,00,0.0,661.641,M,0.0,M,,*6B
$GPVTG,0.000,T,0,M,2.850,N,5.278,K*57
$GPGSA,A,3,,,,,,,,,,,,,0.0,0.0,0.0*32
$GPRMC,071104.000,A,4647.935,N,00923.949,E,2.28,0.00,030911,,*00
$GPGGA,071104.000,4647.935,N,00923.949,E,1,00,0.0,661.953,M,0.0,M,,*63
$GPVTG,0.000,T,0,M,2.280,N,4.223,K*5F
$GPGSA,A,3,,,,,,,,,,,,,0.0,0.0,0.0*32
$GPRMC,071105.000,A,4647.934,N,00923.949,E,2.64,0.00,030911,,*08
$GPGGA,071105.000,4647.934,N,00923.949,E,1,00,0.0,662.125,M,0.0,M,,*69
$GPVTG,0.000,T,0,M,2.645,N,4.898,K*58
$GPGSA,A,3,,,,,,,,,,,,,0.0,0.0,0.0*32
$GPRMC,071106.000,A,4647.933,N,00923.949,E,3.09,0.00,030911,,*06
$GPGGA,071106.000,4647.933,N,00923.949,E,1,00,0.0,662.203,M,0.0,M,,*6A
$GPVTG,0.000,T,0,M,3.095,N,5.732,K*5C
$GPGSA,A,3,,,,,,,,,,,,,0.0,0.0,0.0*32
$GPRMC,071107.000,A,4647.933,N,00923.949,E,3.59,0.00,030911,,*02
$GPGGA,071107.000,4647.933,N,00923.949,E,1,00,0.0,662.344,M,0.0,M,,*69
$GPVTG,0.000,T,0,M,3.591,N,6.650,K*5B
$GPGSA,A,3,,,,,,,,,,,,,0.0,0.0,0.0*32
$GPRMC,071108.000,A,4647.932,N,00923.949,E,2.80,0.00,030911,,*09
$GPGGA,071108.000,4647.932,N,00923.949,E,1,00,0.0,662.578,M,0.0,M,,*6E
$GPVTG,0.000,T,0,M,2.804,N,5.192,K*51
$GPGSA,A,3,,,,,,,,,,,,,0.0,0.0,0.0*32
$GPRMC,071109.000,A,4647.931,N,00923.949,E,2.76,0.00,030911,,*02
$GPGGA,071109.000,4647.931,N,00923.949,E,1,00,0.0,662.734,M,0.0,M,,*66
$GPVTG,0.000,T,0,M,2.763,N,5.118,K*5D
$GPGSA,A,3,,,,,,,,,,,,,0.0,0.0,0.0*32
$GPRMC,071110.000,A,4647.930,N,00923.949,E,2.92,0.00,030911,,*01
$GPGGA,071110.000,4647.930,N,00923.949,E,1,00,0.0,662.906,M,0.0,M,,*60
$GPVTG,0.000,T,0,M,2.920,N,5.408,K*50
$GPGSA,A,3,,,,,,,,,,,,,0.0,0.0,0.0*32
$GPRMC,071111.000,A,4647.929,N,00923.948,E,2.51,0.00,030911,,*06
$GPGGA,071111.000,4647.929,N,00923.948,E,1,00,0.0,663.062,M,0.0,M,,*62
$GPVTG,0.000,T,0,M,2.512,N,4.652,K*51
$GPGSA,A,3,,,,,,,,,,,,,0.0,0.0,0.0*32
$GPRMC,071112.000,A,4647.929,N,00923.948,E,2.68,0.00,030911,,*0F
$GPGGA,071112.000,4647.929,N,00923.948,E,1,00,0.0,663.219,M,0.0,M,,*6F
$GPVTG,0.000,T,0,M,2.684,N,4.972,K*50
$GPGSA,A,3,,,,,,,,,,,,,0.0,0.0,0.0*32
$GPRMC,071113.000,A,4647.928,N,00923.948,E,2.53,0.00,030911,,*07
$GPGGA,071113.000,4647.928,N,00923.948,E,1,00,0.0,663.375,M,0.0,M,,*64
$GPVTG,0.000,T,0,M,2.528,N,4.682,K*55
$GPGSA,A,3,,,,,,,,,,,,,0.0,0.0,0.0*32
$GPRMC,071114.000,A,4647.927,N,00923.948,E,2.76,0.00,030911,,*08
$GPGGA,071114.000,4647.927,N,00923.948,E,1,00,0.0,663.531,M,0.0,M,,*6A
$GPVTG,0.000,T,0,M,2.756,N,5.104,K*56
$GPGSA,A,3,,,,,,,,,,,,,0.0,0.0,0.0*32
$GPRMC,071115.000,A,4647.926,N,00923.948,E,2.91,0.00,030911,,*01
$GPGGA,071115.000,4647.926,N,00923.948,E,1,00,0.0,663.672,M,0.0,M,,*6E
$GPVTG,0.000,T,0,M,2.911,N,5.391,K*55
$GPGSA,A,3,,,,,,,,,,,,,0.0,0.0,0.0*32
$GPRMC,071116.000,A,4647.926,N,00923.948,E,2.45,0.00,030911,,*0B
$GPGGA,071116.000,4647.926,N,00923.948,E,1,00,0.0,663.750,M,0.0,M,,*6C
$GPVTG,0.000,T,0,M,2.454,N,4.545,K*57
$GPGSA,A,3,,,,,,,,,,,,,0.0,0.0,0.0*32
$GPRMC,071117.000,A,4647.926,N,00923.948,E,2.65,0.00,030911,,*08
$GPGGA,071117.000,4647.926,N,00923.948,E,1,00,0.0,663.875,M,0.0,M,,*65
$GPVTG,0.000,T,0,M,2.647,N,4.903,K*59
$GPGSA,A,3,,,,,,,,,,,,,0.0,0.0,0.0*32
$GPRMC,071118.000,A,4647.925,N,00923.947,E,2.91,0.00,030911,,*00
$GPGGA,071118.000,4647.925,N,00923.947,E,1,00,0.0,664.031,M,0.0,M,,*69
$GPVTG,0.000,T,0,M,2.912,N,5.393,K*54
$GPGSA,A,3,,,,,,,,,,,,,0.0,0.0,0.0*32
$GPRMC,071119.000,A,4647.924,N,00923.947,E,2.79,0.00,030911,,*06
$GPGGA,071119.000,4647.924,N,00923.947,E,1,00,0.0,664.188,M,0.0,M,,*6A
$GPVTG,0.000,T,0,M,2.791,N,5.168,K*57
$GPGSA,A,3,,,,,,,,,,,,,0.0,0.0,0.0*32
$GPRMC,071120.000,A,4647.923,N,00923.948,E,2.64,0.00,030911,,*08
$GPGGA,071120.000,4647.923,N,00923.948,E,1,00,0.0,664.359,M,0.0,M,,*66
$GPVTG,0.000,T,0,M,2.644,N,4.897,K*56
$GPGSA,A,3,,,,,,,,,,,,,0.0,0.0,0.0*32
$GPRMC,071121.000,A,4647.922,N,00923.948,E,2.73,0.00,030911,,*0E
$GPGGA,071121.000,4647.922,N,00923.948,E,1,00,0.0,664.609,M,0.0,M,,*66
$GPVTG,0.000,T,0,M,2.734,N,5.063,K*52
$GPGSA,A,3,,,,,,,,,,,,,0.0,0.0,0.0*32
$GPRMC,071122.000,A,4647.921,N,00923.949,E,2.80,0.00,030911,,*03
$GPGGA,071122.000,4647.921,N,00923.949,E,1,00,0.0,664.922,M,0.0,M,,*61
$GPVTG,0.000,T,0,M,2.805,N,5.194,K*56
$GPGSA,A,3,,,,,,,,,,,,,0.0,0.0,0.0*32
$GPRMC,071123.000,A,4647.920,N,00923.949,E,2.37,0.00,030911,,*0F
$GPGGA,071123.000,4647.920,N,00923.949,E,1,00,0.0,665.281,M,0.0,M,,*62
$GPVTG,0.000,T,0,M,2.368,N,4.386,K*56
$GPGSA,A,3,,,,,,,,,,,,,0.0,0.0,0.0*32
$GPRMC,071124.000,A,4647.920,N,00923.949,E,3.24,0.00,030911,,*0B
$GPGGA,071124.000,4647.920,N,00923.949,E,1,00,0.0,665.453,M,0.0,M,,*6C
$GPVTG,0.000,T,0,M,3.243,N,6.005,K*55
$GPGSA,A,3,,,,,,,,,,,,,0.0,0.0,0.0*32
$GPRMC,071125.000,A,4647.919,N,00923.948,E,3.06,0.00,030911,,*01
$GPGGA,071125.000,4647.919,N,00923.948,E,1,00,0.0,665.125,M,0.0,M,,*62
$GPVTG,0.000,T,0,M,3.062,N,5.670,K*53
$GPGSA,A,3,,,,,,,,,,,,,0.0,0.0,0.0*32
$GPRMC,071126.000,A,4647.918,N,00923.948,E,2.72,0.00,030911,,*01
$GPGGA,071126.000,4647.918,N,00923.948,E,1,00,0.0,665.312,M,0.0,M,,*66
$GPVTG,0.000,T,0,M,2.721,N,5.040,K*57
$GPGSA,A,3,,,,,,,,,,,,,0.0,0.0,0.0*32
$GPRMC,071127.000,A,4647.918,N,00923.948,E,2.55,0.00,030911,,*05
$GPGGA,071127.000,4647.918,N,00923.948,E,1,00,0.0,665.500,M,0.0,M,,*62
$GPVTG,0.000,T,0,M,2.552,N,4.726,K*57
$GPGSA,A,3,,,,,,,,,,,,,0.0,0.0,0.0*32
$GPRMC,071128.000,A,4647.917,N,00923.948,E,2.20,0.00,030911,,*07
$GPGGA,071128.000,4647.917,N,00923.948,E,1,00,0.0,665.609,M,0.0,M,,*68
$GPVTG,0.000,T,0,M,2.205,N,4.084,K*5D
$GPGSA,A,3,,,,,,,,,,,,,0.0,0.0,0.0*32
$GPRMC,071129.000,A,4647.917,N,00923.948,E,1.32,0.00,030911,,*06
$GPGGA,071129.000,4647.917,N,00923.948,E,1,00,0.0,665.641,M,0.0,M,,*65
$GPVTG,0.000,T,0,M,1.322,N,2.449,K*59
$GPGSA,A,3,,,,,,,,,,,,,0.0,0.0,0.0*32
$GPRMC,071130.000,A,4647.917,N,00923.948,E,0.77,0.00,030911,,*0E
$GPGGA,071130.000,4647.917,N,00923.948,E,1,00,0.0,665.750,M,0.0,M,,*6C
$GPVTG,0.000,T,0,M,0.767,N,1.420,K*51
$GPGSA,A,3,,,,,,,,,,,,,0.0,0.0,0.0*32
$GPRMC,071131.000,A,4647.916,N,00923.948,E,1.47,0.00,030911,,*0C
$GPGGA,071131.000,4647.916,N,00923.948,E,1,00,0.0,665.859,M,0.0,M,,*6A
$GPVTG,0.000,T,0,M,1.475,N,2.731,K*50
$GPGSA,A,3,,,,,,,,,,,,,0.0,0.0,0.0*32
$GPRMC,071132.000,A,4647.916,N,00923.947,E,2.02,0.00,030911,,*02
$GPGGA,071132.000,4647.916,N,00923.947,E,1,00,0.0,665.953,M,0.0,M,,*6D
$GPVTG,0.000,T,0,M,2.022,N,3.746,K*54
$GPGSA,A,3,,,,,,,,,,,,,0.0,0.0,0.0*32
$GPRMC,071133.000,A,4647.916,N,00923.947,E,2.67,0.00,030911,,*00
$GPGGA,071133.000,4647.916,N,00923.947,E,1,00,0.0,666.031,M,0.0,M,,*62
$GPVTG,0.000,T,0,M,2.670,N,4.944,K*5E
$GPGSA,A,3,,,,,,,,,,,,,0.0,0.0,0.0*32
$GPRMC,071134.000,A,4647.915,N,00923.947,E,2.18,0.00,030911,,*0C
$GPGGA,071134.000,4647.915,N,00923.947,E,1,00,0.0,666.188,M,0.0,M,,*65
$GPVTG,0.000,T,0,M,2.182,N,4.040,K*59
$GPGSA,A,3,,,,,,,,,,,,,0.0,0.0,0.0*32
$GPRMC,071135.000,A,4647.915,N,00923.947,E,2.57,0.00,030911,,*06
$GPGGA,071135.000,4647.915,N,00923.947,E,1,00,0.0,666.328,M,0.0,M,,*6C
$GPVTG,0.000,T,0,M,2.566,N,4.752,K*53
$GPGSA,A,3,,,,,,,,,,,,,0.0,0.0,0.0*32
$GPRMC,071136.000,A,4647.914,N,00923.947,E,2.79,0.00,030911,,*08
$GPGGA,071136.000,4647.914,N,00923.947,E,1,00,0.0,666.438,M,0.0,M,,*68
$GPVTG,0.000,T,0,M,2.786,N,5.159,K*53
$GPGSA,A,3,,,,,,,,,,,,,0.0,0.0,0.0*32
$GPRMC,071137.000,A,4647.913,N,00923.947,E,2.92,0.00,030911,,*0B
$GPGGA,071137.000,4647.913,N,00923.947,E,1,00,0.0,666.531,M,0.0,M,,*66
$GPVTG,0.000,T,0,M,2.919,N,5.405,K*57
$GPGSA,A,3,,,,,,,,,,,,,0.0,0.0,0.0*32
$GPRMC,071138.000,A,4647.913,N,00923.947,E,2.49,0.00,030911,,*02
$GPGGA,071138.000,4647.913,N,00923.947,E,1,00,0.0,666.656,M,0.0,M,,*6B
$GPVTG,0.000,T,0,M,2.487,N,4.605,K*5E
$GPGSA,A,3,,,,,,,,,,,,,0.0,0.0,0.0*32
$GPRMC,071139.000,A,4647.912,N,00923.947,E,2.59,0.00,030911,,*03
$GPGGA,071139.000,4647.912,N,00923.947,E,1,00,0.0,666.766,M,0.0,M,,*69
$GPVTG,0.000,T,0,M,2.589,N,4.795,K*59
$GPGSA,A,3,,,,,,,,,,,,,0.0,0.0,0.0*32
$GPRMC,071140.000,A,4647.911,N,00923.947,E,2.80,0.00,030911,,*0A
$GPGGA,071140.000,4647.911,N,00923.947,E,1,00,0.0,666.875,M,0.0,M,,*69
$GPVTG,0.000,T,0,M,2.797,N,5.180,K*57
$GPGSA,A,3,,,,,,,,,,,,,0.0,0.0,0.0*32
$GPRMC,071141.000,A,4647.910,N,00923.947,E,3.75,0.00,030911,,*01
$GPGGA,071141.000,4647.910,N,00923.947,E,1,00,0.0,667.000,M,0.0,M,,*62
$GPVTG,0.000,T,0,M,3.747,N,6.940,K*5C
$GPGSA,A,3,,,,,,,,,,,,,0.0,0.0,0.0*32
$GPRMC,071142.000,A,4647.909,N,00923.946,E,3.43,0.00,030911,,*0E
$GPGGA,071142.000,4647.909,N,00923.946,E,1,00,0.0,667.109,M,0.0,M,,*60
$GPVTG,0.000,T,0,M,3.426,N,6.344,K*56
$GPGSA,A,3,,,,,,,,,,,,,0.0,0.0,0.0*32
$GPRMC,071143.000,A,4647.908,N,00923.946,E,2.99,0.00,030911,,*08
$GPGGA,071143.000,4647.908,N,00923.946,E,1,00,0.0,667.188,M,0.0,M,,*69
$GPVTG,0.000,T,0,M,2.989,N,5.536,K*5F
$GPGSA,A,3,,,,,,,,,,,,,0.0,0.0,0.0*32
$GPRMC,071144.000,A,4647.907,N,00923.946,E,2.88,0.00,030911,,*00
$GPGGA,071144.000,4647.907,N,00923.946,E,1,00,0.0,667.297,M,0.0,M,,*6C
$GPVTG,0.000,T,0,M,2.881,N,5.335,K*53
$GPGSA,A,3,,,,,,,,,,,,,0.0,0.0,0.0*32
$GPRMC,071145.000,A,4647.905,N,00923.946,E,3.30,0.00,030911,,*01
$GPGGA,071145.000,4647.905,N,00923.946,E,1,00,0.0,667.281,M,0.0,M,,*68
$GPVTG,0.000,T,0,M,3.300,N,6.111,K*57
$GPGSA,A,3,,,,,,,,,,,,,0.0,0.0,0.0*32
$GPRMC,071146.000,A,4647.903,N,00923.946,E,3.27,0.00,030911,,*02
$GPGGA,071146.000,4647.903,N,00923.946,E,1,00,0.0,667.328,M,0.0,M,,*6F
$GPVTG,0.000,T,0,M,3.270,N,6.056,K*53
$GPGSA,A,3,,,,,,,,,,,,,0.0,0.0,0.0*32
$GPRMC,071147.000,A,4647.902,N,00923.947,E,2.96,0.00,030911,,*08
$GPGGA,071147.000,4647.902,N,00923.947,E,1,00,0.0,667.422,M,0.0,M,,*63
$GPVTG,0.000,T,0,M,2.958,N,5.478,K*58
$GPGSA,A,3,,,,,,,,,,,,,0.0,0.0,0.0*32
$GPRMC,071148.000,A,4647.902,N,00923.947,E,2.97,0.00,030911,,*06
$GPGGA,071148.000,4647.902,N,00923.947,E,1,00,0.0,667.500,M,0.0,M,,*6D
$GPVTG,0.000,T,0,M,2.966,N,5.494,K*57
$GPGSA,A,3,,,,,,,,,,,,,0.0,0.0,0.0*32
$GPRMC,071149.000,A,4647.901,N,00923.948,E,2.96,0.00,030911,,*0A
$GPGGA,071149.000,4647.901,N,00923.948,E,1,00,0.0,667.391,M,0.0,M,,*6E
$GPVTG,0.000,T,0,M,2.958,N,5.479,K*59
$GPGSA,A,3,,,,,,,,,,,,,0.0,0.0,0.0*32
$GPRMC,071150.000,A,4647.900,N,00923.948,E,3.50,0.00,030911,,*08
$GPGGA,071150.000,4647.900,N,00923.948,E,1,00,0.0,667.484,M,0.0,M,,*64
$GPVTG,0.000,T,0,M,3.497,N,6.476,K*5A
$GPGSA,A,3,,,,,,,,,,,,,0.0,0.0,0.0*32
$GPRMC,071151.000,A,4647.899,N,00923.947,E,3.57,0.00,030911,,*00
$GPGGA,071151.000,4647.899,N,00923.947,E,1,00,0.0,667.500,M,0.0,M,,*66
$GPVTG,0.000,T,0,M,3.566,N,6.604,K*52
$GPGSA,A,3,,,,,,,,,,,,,0.0,0.0,0.0*32
$GPRMC,071152.000,A,4647.898,N,00923.947,E,3.05,0.00,030911,,*05
$GPGGA,071152.000,4647.898,N,00923.947,E,1,00,0.0,667.609,M,0.0,M,,*6E
$GPVTG,0.000,T,0,M,3.054,N,5.655,K*51
$GPGSA,A,3,,,,,,,,,,,,,0.0,0.0,0.0*32
$GPRMC,071153.000,A,4647.897,N,00923.947,E,2.44,0.00,030911,,*0F
$GPGGA,071153.000,4647.897,N,00923.947,E,1,00,0.0,667.750,M,0.0,M,,*6D
$GPVTG,0.000,T,0,M,2.440,N,4.519,K*5B
$GPGSA,A,3,,,,,,,,,,,,,0.0,0.0,0.0*32
$GPRMC,071154.000,A,4647.896,N,00923.947,E,2.00,0.00,030911,,*09
$GPGGA,071154.000,4647.896,N,00923.947,E,1,00,0.0,667.750,M,0.0,M,,*6B
$GPVTG,0.000,T,0,M,2.000,N,3.704,K*52
$GPGSA,A,3,,,,,,,,,,,,,0.0,0.0,0.0*32
$GPRMC,071155.000,A,4647.896,N,00923.947,E,2.70,0.00,030911,,*0F
$GPGGA,071155.000,4647.896,N,00923.947,E,1,00,0.0,667.844,M,0.0,M,,*60
$GPVTG,0.000,T,0,M,2.700,N,5.001,K*51
$GPGSA,A,3,,,,,,,,,,,,,0.0,0.0,0.0*32
$GPRMC,071156.000,A,4647.895,N,00923.948,E,2.46,0.00,030911,,*05
$GPGGA,071156.000,4647.895,N,00923.948,E,1,00,0.0,668.109,M,0.0,M,,*60
$GPVTG,0.000,T,0,M,2.462,N,4.559,K*5F
$GPGSA,A,3,,,,,,,,,,,,,0.0,0.0,0.0*32
$GPRMC,071157.000,A,4647.894,N,00923.948,E,2.88,0.00,030911,,*07
$GPGGA,071157.000,4647.894,N,00923.948,E,1,00,0.0,668.156,M,0.0,M,,*6A
$GPVTG,0.000,T,0,M,2.876,N,5.327,K*58
$GPGSA,A,3,,,,,,,,,,,,,0.0,0.0,0.0*32
$GPRMC,071158.000,A,4647.893,N,00923.948,E,3.43,0.00,030911,,*09
$GPGGA,071158.000,4647.893,N,00923.948,E,1,00,0.0,668.125,M,0.0,M,,*66
$GPVTG,0.000,T,0,M,3.432,N,6.356,K*50
$GPGSA,A,3,,,,,,,,,,,,,0.0,0.0,0.0*32
$GPRMC,071159.000,A,4647.892,N,00923.947,E,3.32,0.00,030911,,*00
$GPGGA,071159.000,4647.892,N,00923.947,E,1,00,0.0,668.172,M,0.0,M,,*6B
$GPVTG,0.000,T,0,M,3.317,N,6.142,K*57
$GPGSA,A,3,,,,,,,,,,,,,0.0,0.0,0.0*32
$GPRMC,071200.000,A,4647.891,N,00923.947,E,3.36,0.00,030911,,*08
$GPGGA,071200.000,4647.891,N,00923.947,E,1,00,0.0,669.500,M,0.0,M,,*67
$GPVTG,0.000,T,0,M,3.364,N,6.231,K*54
$GPGSA,A,3,,,,,,,,,,,,,0.0,0.0,0.0*32
$GPRMC,071201.000,A,4647.891,N,00923.946,E,3.32,0.00,030911,,*0C
$GPGGA,071201.000,4647.891,N,00923.946,E,1,00,0.0,669.297,M,0.0,M,,*6E
$GPVTG,0.000,T,0,M,3.324,N,6.156,K*52
$GPGSA,A,3,,,,,,,,,,,,,0.0,0.0,0.0*32
$GPRMC,071202.000,A,4647.890,N,00923.945,E,3.07,0.00,030911,,*0B
$GPGGA,071202.000,4647.890,N,00923.945,E,1,00,0.0,669.375,M,0.0,M,,*62
$GPVTG,0.000,T,0,M,3.073,N,5.691,K*5C
$GPGSA,A,3,,,,,,,,,,,,,0.0,0.0,0.0*32
$GPRMC,071203.000,A,4647.890,N,00923.941,E,3.29,0.00,030911,,*02
$GPGGA,071203.000,4647.890,N,00923.941,E,1,00,0.0,664.219,M,0.0,M,,*61
$GPVTG,0.000,T,0,M,3.289,N,6.092,K*5D
$GPGSA,A,3,,,,,,,,,,,,,0.0,0.0,0.0*32
$GPRMC,071204.000,A,4647.889,N,00923.940,E,2.29,0.00,030911,,*0D
$GPGGA,071204.000,4647.889,N,00923.940,E,1,00,0.0,663.938,M,0.0,M,,*60
$GPVTG,0.000,T,0,M,2.290,N,4.242,K*59
$GPGSA,A,3,,,,,,,,,,,,,0.0,0.0,0.0*32
$GPRMC,071205.000,A,4647.889,N,00923.939,E,2.87,0.00,030911,,*06
$GPGGA,071205.000,4647.889,N,00923.939,E,1,00,0.0,663.078,M,0.0,M,,*62
$GPVTG,0.000,T,0,M,2.871,N,5.317,K*5C
$GPGSA,A,3,,,,,,,,,,,,,0.0,0.0,0.0*32
$GPRMC,071206.000,A,4647.888,N,00923.938,E,1.87,0.00,030911,,*06
$GPGGA,071206.000,4647.888,N,00923.938,E,1,00,0.0,662.953,M,0.0,M,,*60
$GPVTG,0.000,T,0,M,1.866,N,3.456,K*5D
$GPGSA,A,3,,,,,,,,,,,,,0.0,0.0,0.0*32
$GPRMC,071207.000,A,4647.888,N,00923.938,E,3.32,0.00,030911,,*0B
$GPGGA,071207.000,4647.888,N,00923.938,E,1,00,0.0,663.516,M,0.0,M,,*6D
$GPVTG,0.000,T,0,M,3.321,N,6.150,K*51
$GPGSA,A,3,,,,,,,,,,,,,0.0,0.0,0.0*32
$GPRMC,071208.000,A,4647.888,N,00923.937,E,2.99,0.00,030911,,*0B
$GPGGA,071208.000,4647.888,N,00923.937,E,1,00,0.0,664.078,M,0.0,M,,*67
$GPVTG,0.000,T,0,M,2.988,N,5.533,K*5B
$GPGSA,A,3,,,,,,,,,,,,,0.0,0.0,0.0*32
$GPRMC,071209.000,A,4647.887,N,00923.936,E,3.15,0.00,030911,,*01
$GPGGA,071209.000,4647.887,N,00923.936,E,1,00,0.0,663.984,M,0.0,M,,*65
$GPVTG,0.000,T,0,M,3.151,N,5.835,K*5D
$GPGSA,A,3,,,,,,,,,,,,,0.0,0.0,0.0*32
$GPRMC,071210.000,A,4647.887,N,00923.935,E,2.56,0.00,030911,,*0C
$GPGGA,071210.000,4647.887,N,00923.935,E,1,00,0.0,664.109,M,0.0,M,,*64
$GPVTG,0.000,T,0,M,2.565,N,4.750,K*52
$GPGSA,A,3,,,,,,,,,,,,,0.0,0.0,0.0*32
$GPRMC,071211.000,A,4647.886,N,00923.934,E,2.82,0.00,030911,,*04
$GPGGA,071211.000,4647.886,N,00923.934,E,1,00,0.0,664.406,M,0.0,M,,*6F
$GPVTG,0.000,T,0,M,2.816,N,5.216,K*5D
$GPGSA,A,3,,,,,,,,,,,,,0.0,0.0,0.0*32
$GPRMC,071212.000,A,4647.885,N,00923.933,E,2.94,0.00,030911,,*04
$GPGGA,071212.000,4647.885,N,00923.933,E,1,00,0.0,664.703,M,0.0,M,,*6E
$GPVTG,0.000,T,0,M,2.938,N,5.442,K*57
$GPGSA,A,3,,,,,,,,,,,,,0.0,0.0,0.0*32
$GPRMC,071213.000,A,4647.885,N,00923.933,E,2.45,0.00,030911,,*09
$GPGGA,071213.000,4647.885,N,00923.933,E,1,00,0.0,665.484,M,0.0,M,,*62
$GPVTG,0.000,T,0,M,2.448,N,4.535,K*5D
$GPGSA,A,3,,,,,,,,,,,,,0.0,0.0,0.0*32
$GPRMC,071214.000,A,4647.885,N,00923.931,E,3.06,0.00,030911,,*0A
$GPGGA,071214.000,4647.885,N,00923.931,E,1,00,0.0,664.750,M,0.0,M,,*6C
$GPVTG,0.000,T,0,M,3.056,N,5.660,K*55
$GPGSA,A,3,,,,,,,,,,,,,0.0,0.0,0.0*32
$GPRMC,071215.000,A,4647.884,N,00923.930,E,3.07,0.00,030911,,*0A
$GPGGA,071215.000,4647.884,N,00923.930,E,1,00,0.0,664.703,M,0.0,M,,*6B
$GPVTG,0.000,T,0,M,3.072,N,5.689,K*54
$GPGSA,A,3,,,,,,,,,,,,,0.0,0.0,0.0*32
$GPRMC,071216.000,A,4647.883,N,00923.929,E,3.32,0.00,030911,,*00
$GPGGA,071216.000,4647.883,N,00923.929,E,1,00,0.0,664.125,M,0.0,M,,*65
$GPVTG,0.000,T,0,M,3.320,N,6.148,K*59
$GPGSA,A,3,,,,,,,,,,,,,0.0,0.0,0.0*32
$GPRMC,071217.000,A,4647.882,N,00923.928,E,3.05,0.00,030911,,*05
$GPGGA,071217.000,4647.882,N,00923.928,E,1,00,0.0,663.188,M,0.0,M,,*64
$GPVTG,0.000,T,0,M,3.055,N,5.657,K*52
$GPGSA,A,3,,,,,,,,,,,,,0.0,0.0,0.0*32
$GPRMC,071218.000,A,4647.881,N,00923.927,E,3.30,0.00,030911,,*00
$GPGGA,071218.000,4647.881,N,00923.927,E,1,00,0.0,663.062,M,0.0,M,,*62
$GPVTG,0.000,T,0,M,3.301,N,6.113,K*54
$GPGSA,A,3,,,,,,,,,,,,,0.0,0.0,0.0*32
$GPRMC,071219.000,A,4647.881,N,00923.926,E,3.10,0.00,030911,,*02
$GPGGA,071219.000,4647.881,N,00923.926,E,1,00,0.0,663.062,M,0.0,M,,*62
$GPVTG,0.000,T,0,M,3.099,N,5.740,K*55
$GPGSA,A,3,,,,,,,,,,,,,0.0,0.0,0.0*32
$GPRMC,071220.000,A,4647.880,N,00923.925,E,3.39,0.00,030911,,*01
$GPGGA,071220.000,4647.880,N,00923.925,E,1,00,0.0,663.344,M,0.0,M,,*6D
$GPVTG,0.000,T,0,M,3.389,N,6.277,K*55
$GPGSA,A,3,,,,,,,,,,,,,0.0,0.0,0.0*32
$GPRMC,071221.000,A,4647.879,N,00923.924,E,2.47,0.00,030911,,*0F
$GPGGA,071221.000,4647.879,N,00923.924,E,1,00,0.0,663.641,M,0.0,M,,*6B
$GPVTG,0.000,T,0,M,2.472,N,4.578,K*5D
$GPGSA,A,3,,,,,,,,,,,,,0.0,0.0,0.0*32
$GPRMC,071222.000,A,4647.879,N,00923.923,E,2.80,0.00,030911,,*00
$GPGGA,071222.000,4647.879,N,00923.923,E,1,00,0.0,663.938,M,0.0,M,,*6E
$GPVTG,0.000,T,0,M,2.802,N,5.190,K*55
$GPGSA,A,3,,,,,,,,,,,,,0.0,0.0,0.0*32
$GPRMC,071223.000,A,4647.879,N,00923.922,E,3.13,0.00,030911,,*0B
$GPGGA,071223.000,4647.879,N,00923.922,E,1,00,0.0,664.828,M,0.0,M,,*69
$GPVTG,0.000,T,0,M,3.134,N,5.804,K*5C
$GPGSA,A,3,,,,,,,,,,,,,0.0,0.0,0.0*32
$GPRMC,071224.000,A,4647.878,N,00923.921,E,2.96,0.00,030911,,*02
$GPGGA,071224.000,4647.878,N,00923.921,E,1,00,0.0,665.188,M,0.0,M,,*6E
$GPVTG,0.000,T,0,M,2.957,N,5.477,K*58
$GPGSA,A,3,,,,,,,,,,,,,0.0,0.0,0.0*32
$GPRMC,071225.000,A,4647.878,N,00923.921,E,2.61,0.00,030911,,*0B
$GPGGA,071225.000,4647.878,N,00923.921,E,1,00,0.0,665.516,M,0.0,M,,*6C
$GPVTG,0.000,T,0,M,2.614,N,4.842,K*5B
$GPGSA,A,3,,,,,,,,,,,,,0.0,0.0,0.0*32
$GPRMC,071226.000,A,4647.878,N,00923.920,E,2.36,0.00,030911,,*0B
$GPGGA,071226.000,4647.878,N,00923.920,E,1,00,0.0,665.781,M,0.0,M,,*62
$GPVTG,0.000,T,0,M,2.364,N,4.378,K*5B
$GPGSA,A,3,,,,,,,,,,,,,0.0,0.0,0.0*32
$GPRMC,071227.000,A,4647.877,N,00923.919,E,2.63,0.00,030911,,*0F
$GPGGA,071227.000,4647.877,N,00923.919,E,1,00,0.0,666.250,M,0.0,M,,*6C
$GPVTG,0.000,T,0,M,2.633,N,4.876,K*59
$GPGSA,A,3,,,,,,,,,,,,,0.0,0.0,0.0*32
$GPRMC,071228.000,A,4647.877,N,00923.918,E,2.93,0.00,030911,,*0E
$GPGGA,071228.000,4647.877,N,00923.918,E,1,00,0.0,666.344,M,0.0,M,,*66
$GPVTG,0.000,T,0,M,2.935,N,5.435,K*5A
$GPGSA,A,3,,,,,,,,,,,,,0.0,0.0,0.0*32
$GPRMC,071229.000,A,4647.876,N,00923.918,E,2.76,0.00,030911,,*05
$GPGGA,071229.000,4647.876,N,00923.918,E,1,00,0.0,666.641,M,0.0,M,,*66
$GPVTG,0.000,T,0,M,2.762,N,5.116,K*52
$GPGSA,A,3,,,,,,,,,,,,,0.0,0.0,0.0*32
$GPRMC,071230.000,A,4647.875,N,00923.917,E,2.97,0.00,030911,,*0E
$GPGGA,071230.000,4647.875,N,00923.917,E,1,00,0.0,666.984,M,0.0,M,,*64
$GPVTG,0.000,T,0,M,2.972,N,5.503,K*5D
$GPGSA,A,3,,,,,,,,,,,,,0.0,0.0,0.0*32
$GPRMC,071231.000,A,4647.875,N,00923.917,E,2.41,0.00,030911,,*04
$GPGGA,071231.000,4647.875,N,00923.917,E,1,00,0.0,667.047,M,0.0,M,,*62
$GPVTG,0.000,T,0,M,2.408,N,4.460,K*58
$GPGSA,A,3,,,,,,,,,,,,,0.0,0.0,0.0*32
$GPRMC,071232.000,A,4647.875,N,00923.916,E,1.77,0.00,030911,,*00
$GPGGA,071232.000,4647.875,N,00923.916,E,1,00,0.0,666.672,M,0.0,M,,*61
$GPVTG,0.000,T,0,M,1.766,N,3.271,K*51
$GPGSA,A,3,,,,,,,,,,,,,0.0,0.0,0.0*32
$GPRMC,071233.000,A,4647.874,N,00923.915,E,2.23,0.00,030911,,*01
$GPGGA,071233.000,4647.874,N,00923.915,E,1,00,0.0,666.125,M,0.0,M,,*67
$GPVTG,0.000,T,0,M,2.234,N,4.138,K*59
$GPGSA,A,3,,,,,,,,,,,,,0.0,0.0,0.0*32
$GPRMC,071234.000,A,4647.873,N,00923.915,E,2.11,0.00,030911,,*00
$GPGGA,071234.000,4647.873,N,00923.915,E,1,00,0.0,666.031,M,0.0,M,,*63
$GPVTG,0.000,T,0,M,2.105,N,3.899,K*5D
$GPGSA,A,3,,,,,,,,,,,,,0.0,0.0,0.0*32
$GPRMC,071235.000,A,4647.873,N,00923.915,E,3.03,0.00,030911,,*03
$GPGGA,071235.000,4647.873,N,00923.915,E,1,00,0.0,665.891,M,0.0,M,,*63
$GPVTG,0.000,T,0,M,3.026,N,5.604,K*50
$GPGSA,A,3,,,,,,,,,,,,,0.0,0.0,0.0*32
$GPRMC,071236.000,A,4647.872,N,00923.915,E,2.89,0.00,030911,,*02
$GPGGA,071236.000,4647.872,N,00923.915,E,1,00,0.0,666.031,M,0.0,M,,*60
$GPVTG,0.000,T,0,M,2.891,N,5.354,K*55
$GPGSA,A,3,,,,,,,,,,,,,0.0,0.0,0.0*32
$GPRMC,071237.000,A,4647.872,N,00923.915,E,2.26,0.00,030911,,*06
$GPGGA,071237.000,4647.872,N,00923.915,E,1,00,0.0,666.266,M,0.0,M,,*61
$GPVTG,0.000,T,0,M,2.263,N,4.191,K*58
$GPGSA,A,3,,,,,,,,,,,,,0.0,0.0,0.0*32
$GPRMC,071238.000,A,4647.871,N,00923.916,E,2.73,0.00,030911,,*09
$GPGGA,071238.000,4647.871,N,00923.916,E,1,00,0.0,666.469,M,0.0,M,,*67
$GPVTG,0.000,T,0,M,2.734,N,5.063,K*52
$GPGSA,A,3,,,,,,,,,,,,,0.0,0.0,0.0*32
$GPRMC,071239.000,A,4647.870,N,00923.917,E,2.64,0.00,030911,,*0E
$GPGGA,071239.000,4647.870,N,00923.917,E,1,00,0.0,666.656,M,0.0,M,,*68
$GPVTG,0.000,T,0,M,2.635,N,4.880,K*56
$GPGSA,A,3,,,,,,,,,,,,,0.0,0.0,0.0*32
$GPRMC,071240.000,A,4647.870,N,00923.917,E,2.99,0.00,030911,,*02
$GPGGA,071240.000,4647.870,N,00923.917,E,1,00,0.0,666.844,M,0.0,M,,*6B
$GPVTG,0.000,T,0,M,2.991,N,5.539,K*59
$GPGSA,A,3,,,,,,,,,,,,,0.0,0.0,0.0*32
$GPRMC,071241.000,A,4647.869,N,00923.918,E,2.64,0.00,030911,,*06
$GPGGA,071241.000,4647.869,N,00923.918,E,1,00,0.0,667.016,M,0.0,M,,*63
$GPVTG,0.000,T,0,M,2.642,N,4.892,K*55
$GPGSA,A,3,,,,,,,,,,,,,0.0,0.0,0.0*32
$GPRMC,071242.000,A,4647.869,N,00923.919,E,3.00,0.00,030911,,*07
$GPGGA,071242.000,4647.869,N,00923.919,E,1,00,0.0,667.188,M,0.0,M,,*67
$GPVTG,0.000,T,0,M,3.001,N,5.558,K*5F
$GPGSA,A,3,,,,,,,,,,,,,0.0,0.0,0.0*32
$GPRMC,071243.000,A,4647.868,N,00923.919,E,2.59,0.00,030911,,*0A
$GPGGA,071243.000,4647.868,N,00923.919,E,1,00,0.0,667.391,M,0.0,M,,*6D
$GPVTG,0.000,T,0,M,2.590,N,4.796,K*52
$GPGSA,A,3,,,,,,,,,,,,,0.0,0.0,0.0*32
$GPRMC,071244.000,A,4647.867,N,00923.920,E,2.56,0.00,030911,,*07
$GPGGA,071244.000,4647.867,N,00923.920,E,1,00,0.0,667.453,M,0.0,M,,*66
$GPVTG,0.000,T,0,M,2.565,N,4.750,K*52
$GPGSA,A,3,,,,,,,,,,,,,0.0,0.0,0.0*32
$GPRMC,071245.000,A,4647.866,N,00923.919,E,2.58,0.00,030911,,*03
$GPGGA,071245.000,4647.866,N,00923.919,E,1,00,0.0,668.000,M,0.0,M,,*61
$GPVTG,0.000,T,0,M,2.585,N,4.787,K*56
$GPGSA,A,3,,,,,,,,,,,,,0.0,0.0,0.0*32
$GPRMC,071246.000,A,4647.865,N,00923.921,E,3.15,0.00,030911,,*00
$GPGGA,071246.000,4647.865,N,00923.921,E,1,00,0.0,667.984,M,0.0,M,,*60
$GPVTG,0.000,T,0,M,3.154,N,5.842,K*58
$GPGSA,A,3,,,,,,,,,,,,,0.0,0.0,0.0*32
$GPRMC,071247.000,A,4647.864,N,00923.921,E,3.16,0.00,030911,,*03
$GPGGA,071247.000,4647.864,N,00923.921,E,1,00,0.0,668.250,M,0.0,M,,*6D
$GPVTG,0.000,T,0,M,3.160,N,5.853,K*5F
$GPGSA,A,3,,,,,,,,,,,,,0.0,0.0,0.0*32
$GPRMC,071248.000,A,4647.864,N,00923.922,E,3.30,0.00,030911,,*0B
$GPGGA,071248.000,4647.864,N,00923.922,E,1,00,0.0,668.469,M,0.0,M,,*6D
$GPVTG,0.000,T,0,M,3.298,N,6.108,K*5F
$GPGSA,A,3,,,,,,,,,,,,,0.0,0.0,0.0*32
$GPRMC,071249.000,A,4647.863,N,00923.923,E,2.87,0.00,030911,,*01
$GPGGA,071249.000,4647.863,N,00923.923,E,1,00,0.0,668.688,M,0.0,M,,*67
$GPVTG,0.000,T,0,M,2.874,N,5.322,K*5F
$GPGSA,A,3,,,,,,,,,,,,,0.0,0.0,0.0*32
$GPRMC,071250.000,A,4647.862,N,00923.923,E,2.75,0.00,030911,,*05
$GPGGA,071250.000,4647.862,N,00923.923,E,1,00,0.0,668.891,M,0.0,M,,*68
$GPVTG,0.000,T,0,M,2.746,N,5.085,K*5F
$GPGSA,A,3,,,,,,,,,,,,,0.0,0.0,0.0*32
$GPRMC,071251.000,A,4647.861,N,00923.924,E,2.76,0.00,030911,,*03
$GPGGA,071251.000,4647.861,N,00923.924,E,1,00,0.0,669.078,M,0.0,M,,*63
$GPVTG,0.000,T,0,M,2.757,N,5.105,K*56
$GPGSA,A,3,,,,,,,,,,,,,0.0,0.0,0.0*32
$GPRMC,071252.000,A,4647.861,N,00923.925,E,2.31,0.00,030911,,*02
$GPGGA,071252.000,4647.861,N,00923.925,E,1,00,0.0,669.016,M,0.0,M,,*69
$GPVTG,0.000,T,0,M,2.311,N,4.279,K*59
$GPGSA,A,3,,,,,,,,,,,,,0.0,0.0,0.0*32
$GPRMC,071253.000,A,4647.861,N,00923.926,E,2.97,0.00,030911,,*0C
$GPGGA,071253.000,4647.861,N,00923.926,E,1,00,0.0,669.203,M,0.0,M,,*6D
$GPVTG,0.000,T,0,M,2.970,N,5.501,K*5D
$GPGSA,A,3,,,,,,,,,,,,,0.0,0.0,0.0*32
$GPRMC,071254.000,A,4647.861,N,00923.927,E,3.05,0.00,030911,,*00
$GPGGA,071254.000,4647.861,N,00923.927,E,1,00,0.0,669.422,M,0.0,M,,*6E
$GPVTG,0.000,T,0,M,3.046,N,5.641,K*57
$GPGSA,A,3,,,,,,,,,,,,,0.0,0.0,0.0*32
$GPRMC,071255.000,A,4647.860,N,00923.927,E,2.60,0.00,030911,,*02
$GPGGA,071255.000,4647.860,N,00923.927,E,1,00,0.0,669.594,M,0.0,M,,*62
$GPVTG,0.000,T,0,M,2.602,N,4.819,K*52
$GPGSA,A,3,,,,,,,,,,,,,0.0,0.0,0.0*32
$GPRMC,071256.000,A,4647.859,N,00923.928,E,2.30,0.00,030911,,*01
$GPGGA,071256.000,4647.859,N,00923.928,E,1,00,0.0,669.750,M,0.0,M,,*6E
$GPVTG,0.000,T,0,M,2.301,N,4.262,K*52
$GPGSA,A,3,,,,,,,,,,,,,0.0,0.0,0.0*32
$GPRMC,071257.000,A,4647.858,N,00923.930,E,2.98,0.00,030911,,*0A
$GPGGA,071257.000,4647.858,N,00923.930,E,1,00,0.0,669.469,M,0.0,M,,*6E
$GPVTG,0.000,T,0,M,2.979,N,5.516,K*52
$GPGSA,A,3,,,,,,,,,,,,,0.0,0.0,0.0*32
$GPRMC,071258.000,A,4647.857,N,00923.931,E,3.20,0.00,030911,,*09
$GPGGA,071258.000,4647.857,N,00923.931,E,1,00,0.0,669.391,M,0.0,M,,*6F
$GPVTG,0.000,T,0,M,3.196,N,5.920,K*53
$GPGSA,A,3,,,,,,,,,,,,,0.0,0.0,0.0*32
$GPRMC,071259.000,A,4647.857,N,00923.931,E,3.12,0.00,030911,,*09
$GPGGA,071259.000,4647.857,N,00923.931,E,1,00,0.0,669.547,M,0.0,M,,*63
$GPVTG,0.000,T,0,M,3.124,N,5.785,K*5B
$GPGSA,A,3,,,,,,,,,,,,,0.0,0.0,0.0*32
$GPRMC,071300.000,A,4647.856,N,00923.932,E,3.33,0.00,030911,,*05
$GPGGA,071300.000,4647.856,N,00923.932,E,1,00,0.0,669.672,M,0.0,M,,*69
$GPVTG,0.000,T,0,M,3.326,N,6.159,K*5F
$GPGSA,A,3,,,,,,,,,,,,,0.0,0.0,0.0*32
$GPRMC,071301.000,A,4647.855,N,00923.932,E,3.05,0.00,030911,,*02
$GPGGA,071301.000,4647.855,N,00923.932,E,1,00,0.0,669.891,M,0.0,M,,*68
$GPVTG,0.000,T,0,M,3.045,N,5.640,K*55
$GPGSA,A,3,,,,,,,,,,,,,0.0,0.0,0.0*32
$GPRMC,071302.000,A,4647.854,N,00923.933,E,3.02,0.00,030911,,*06
$GPGGA,071302.000,4647.854,N,00923.933,E,1,00,0.0,670.094,M,0.0,M,,*6E
$GPVTG,0.000,T,0,M,3.015,N,5.585,K*5A
$GPGSA,A,3,,,,,,,,,,,,,0.0,0.0,0.0*32
$GPRMC,071303.000,A,4647.854,N,00923.934,E,2.55,0.00,030911,,*03
$GPGGA,071303.000,4647.854,N,00923.934,E,1,00,0.0,670.234,M,0.0,M,,*60
$GPVTG,0.000,T,0,M,2.546,N,4.715,K*52
$GPGSA,A,3,,,,,,,,,,,,,0.0,0.0,0.0*32
$GPRMC,071304.000,A,4647.853,N,00923.934,E,2.77,0.00,030911,,*03
$GPGGA,071304.000,4647.853,N,00923.934,E,1,00,0.0,670.484,M,0.0,M,,*6D
$GPVTG,0.000,T,0,M,2.768,N,5.126,K*5B
$GPGSA,A,3,,,,,,,,,,,,,0.0,0.0,0.0*32
$GPRMC,071305.000,A,4647.852,N,00923.935,E,2.96,0.00,030911,,*0D
$GPGGA,071305.000,4647.852,N,00923.935,E,1,00,0.0,670.703,M,0.0,M,,*60
$GPVTG,0.000,T,0,M,2.956,N,5.475,K*5B
$GPGSA,A,3,,,,,,,,,,,,,0.0,0.0,0.0*32
$GPRMC,071306.000,A,4647.852,N,00923.936,E,3.00,0.00,030911,,*03
$GPGGA,071306.000,4647.852,N,00923.936,E,1,00,0.0,670.859,M,0.0,M,,*60
$GPVTG,0.000,T,0,M,3.004,N,5.563,K*52
$GPGSA,A,3,,,,,,,,,,,,,0.0,0.0,0.0*32
$GPRMC,071307.000,A,4647.851,N,00923.937,E,3.51,0.00,030911,,*04
$GPGGA,071307.000,4647.851,N,00923.937,E,1,00,0.0,671.031,M,0.0,M,,*64
$GPVTG,0.000,T,0,M,3.514,N,6.507,K*57
$GPGSA,A,3,,,,,,,,,,,,,0.0,0.0,0.0*32
$GPRMC,071308.000,A,4647.850,N,00923.937,E,2.83,0.00,030911,,*04
$GPGGA,071308.000,4647.850,N,00923.937,E,1,00,0.0,671.156,M,0.0,M,,*6A
$GPVTG,0.000,T,0,M,2.831,N,5.243,K*58
$GPGSA,A,3,,,,,,,,,,,,,0.0,0.0,0.0*32
$GPRMC,071309.000,A,4647.850,N,00923.938,E,2.68,0.00,030911,,*0F
$GPGGA,071309.000,4647.850,N,00923.938,E,1,00,0.0,671.297,M,0.0,M,,*6A
$GPVTG,0.000,T,0,M,2.680,N,4.964,K*53
$GPGSA,A,3,,,,,,,,,,,,,0.0,0.0,0.0*32
$GPRMC,071310.000,A,4647.849,N,00923.938,E,2.84,0.00,030911,,*0D
$GPGGA,071310.000,4647.849,N,00923.938,E,1,00,0.0,671.469,M,0.0,M,,*6D
$GPVTG,0.000,T,0,M,2.844,N,5.267,K*5C
$GPGSA,A,3,,,,,,,,,,,,,0.0,0.0,0.0*32
$GPRMC,071311.000,A,4647.849,N,00923.939,E,2.23,0.00,030911,,*00
$GPGGA,071311.000,4647.849,N,00923.939,E,1,00,0.0,671.688,M,0.0,M,,*60
$GPVTG,0.000,T,0,M,2.229,N,4.129,K*55
$GPGSA,A,3,,,,,,,,,,,,,0.0,0.0,0.0*32
$GPRMC,071312.000,A,4647.848,N,00923.940,E,2.57,0.00,030911,,*0F
$GPGGA,071312.000,4647.848,N,00923.940,E,1,00,0.0,671.547,M,0.0,M,,*6C
$GPVTG,0.000,T,0,M,2.565,N,4.751,K*53
$GPGSA,A,3,,,,,,,,,,,,,0.0,0.0,0.0*32
$GPRMC,071313.000,A,4647.847,N,00923.941,E,3.24,0.00,030911,,*05
$GPGGA,071313.000,4647.847,N,00923.941,E,1,00,0.0,671.609,M,0.0,M,,*6A
$GPVTG,0.000,T,0,M,3.236,N,5.993,K*52
$GPGSA,A,3,,,,,,,,,,,,,0.0,0.0,0.0*32
$GPRMC,071314.000,A,4647.846,N,00923.941,E,3.23,0.00,030911,,*04
$GPGGA,071314.000,4647.846,N,00923.941,E,1,00,0.0,671.672,M,0.0,M,,*60
$GPVTG,0.000,T,0,M,3.227,N,5.976,K*59
$GPGSA,A,3,,,,,,,,,,,,,0.0,0.0,0.0*32
$GPRMC,071315.000,A,4647.845,N,00923.942,E,2.55,0.00,030911,,*05
$GPGGA,071315.000,4647.845,N,00923.942,E,1,00,0.0,671.516,M,0.0,M,,*60
$GPVTG,0.000,T,0,M,2.552,N,4.727,K*56
$GPGSA,A,3,,,,,,,,,,,,,0.0,0.0,0.0*32
$GPRMC,071316.000,A,4647.844,N,00923.942,E,3.25,0.00,030911,,*01
$GPGGA,071316.000,4647.844,N,00923.942,E,1,00,0.0,671.547,M,0.0,M,,*66
$GPVTG,0.000,T,0,M,3.253,N,6.025,K*56
$GPGSA,A,3,,,,,,,,,,,,,0.0,0.0,0.0*32
$GPRMC,071317.000,A,4647.844,N,00923.943,E,2.58,0.00,030911,,*0A
$GPGGA,071317.000,4647.844,N,00923.943,E,1,00,0.0,671.531,M,0.0,M,,*67
$GPVTG,0.000,T,0,M,2.575,N,4.769,K*59
$GPGSA,A,3,,,,,,,,,,,,,0.0,0.0,0.0*32
$GPRMC,071318.000,A,4647.843,N,00923.943,E,2.73,0.00,030911,,*0B
$GPGGA,071318.000,4647.843,N,00923.943,E,1,00,0.0,671.625,M,0.0,M,,*69
$GPVTG,0.000,T,0,M,2.731,N,5.058,K*5F
$GPGSA,A,3,,,,,,,,,,,,,0.0,0.0,0.0*32
$GPRMC,071319.000,A,4647.841,N,00923.945,E,3.56,0.00,030911,,*08
$GPGGA,071319.000,4647.841,N,00923.945,E,1,00,0.0,671.391,M,0.0,M,,*66
$GPVTG,0.000,T,0,M,3.560,N,6.594,K*5E
$GPGSA,A,3,,,,,,,,,,,,,0.0,0.0,0.0*32
$GPRMC,071320.000,A,4647.840,N,00923.946,E,3.11,0.00,030911,,*03
$GPGGA,071320.000,4647.840,N,00923.946,E,1,00,0.0,671.406,M,0.0,M,,*67
$GPVTG,0.000,T,0,M,3.106,N,5.753,K*50
$GPGSA,A,3,,,,,,,,,,,,,0.0,0.0,0.0*32
$GPRMC,071321.000,A,4647.840,N,00923.946,E,2.36,0.00,030911,,*06
$GPGGA,071321.000,4647.840,N,00923.946,E,1,00,0.0,671.562,M,0.0,M,,*65
$GPVTG,0.000,T,0,M,2.359,N,4.370,K*5D
$GPGSA,A,3,,,,,,,,,,,,,0.0,0.0,0.0*32
$GPRMC,071322.000,A,4647.839,N,00923.947,E,2.93,0.00,030911,,*05
$GPGGA,071322.000,4647.839,N,00923.947,E,1,00,0.0,671.359,M,0.0,M,,*67
$GPVTG,0.000,T,0,M,2.929,N,5.425,K*56
$GPGSA,A,3,,,,,,,,,,,,,0.0,0.0,0.0*32
$GPRMC,071323.000,A,4647.839,N,00923.948,E,3.23,0.00,030911,,*01
$GPGGA,071323.000,4647.839,N,00923.948,E,1,00,0.0,671.609,M,0.0,M,,*69
$GPVTG,0.000,T,0,M,3.231,N,5.984,K*53
$GPGSA,A,3,,,,,,,,,,,,,0.0,0.0,0.0*32
$GPRMC,071324.000,A,4647.838,N,00923.949,E,2.79,0.00,030911,,*08
$GPGGA,071324.000,4647.838,N,00923.949,E,1,00,0.0,671.594,M,0.0,M,,*69
$GPVTG,0.000,T,0,M,2.791,N,5.169,K*56
$GPGSA,A,3,,,,,,,,,,,,,0.0,0.0,0.0*32
$GPRMC,071325.000,A,4647.837,N,00923.949,E,2.67,0.00,030911,,*09
$GPGGA,071325.000,4647.837,N,00923.949,E,1,00,0.0,671.688,M,0.0,M,,*69
$GPVTG,0.000,T,0,M,2.667,N,4.939,K*52
$GPGSA,A,3,,,,,,,,,,,,,0.0,0.0,0.0*32
$GPRMC,071326.000,A,4647.837,N,00923.950,E,2.17,0.00,030911,,*05
$GPGGA,071326.000,4647.837,N,00923.950,E,1,00,0.0,671.844,M,0.0,M,,*6C
$GPVTG,0.000,T,0,M,2.171,N,4.021,K*52
$GPGSA,A,3,,,,,,,,,,,,,0.0,0.0,0.0*32
$GPRMC,071327.000,A,4647.836,N,00923.950,E,2.39,0.00,030911,,*09
$GPGGA,071327.000,4647.836,N,00923.950,E,1,00,0.0,671.484,M,0.0,M,,*6C
$GPVTG,0.000,T,0,M,2.392,N,4.430,K*59
$GPGSA,A,3,,,,,,,,,,,,,0.0,0.0,0.0*32
$GPRMC,071328.000,A,4647.835,N,00923.950,E,2.55,0.00,030911,,*0F
$GPGGA,071328.000,4647.835,N,00923.950,E,1,00,0.0,671.219,M,0.0,M,,*62
$GPVTG,0.000,T,0,M,2.549,N,4.721,K*5A
$GPGSA,A,3,,,,,,,,,,,,,0.0,0.0,0.0*32
$GPRMC,071329.000,A,4647.834,N,00923.951,E,1.94,0.00,030911,,*00
$GPGGA,071329.000,4647.834,N,00923.951,E,1,00,0.0,671.125,M,0.0,M,,*6F
$GPVTG,0.000,T,0,M,1.943,N,3.598,K*58
$GPGSA,A,3,,,,,,,,,,,,,0.0,0.0,0.0*32
$GPRMC,071330.000,A,4647.834,N,00923.951,E,2.46,0.00,030911,,*04
$GPGGA,071330.000,4647.834,N,00923.951,E,1,00,0.0,671.156,M,0.0,M,,*63
$GPVTG,0.000,T,0,M,2.459,N,4.554,K*5A
$GPGSA,A,3,,,,,,,,,,,,,0.0,0.0,0.0*32
$GPRMC,071331.000,A,4647.834,N,00923.951,E,2.03,0.00,030911,,*04
$GPGGA,071331.000,4647.834,N,00923.951,E,1,00,0.0,671.062,M,0.0,M,,*64
$GPVTG,0.000,T,0,M,2.027,N,3.754,K*52
$GPGSA,A,3,,,,,,,,,,,,,0.0,0.0,0.0*32
$GPRMC,071332.000,A,4647.833,N,00923.952,E,1.68,0.00,030911,,*0D
$GPGGA,071332.000,4647.833,N,00923.952,E,1,00,0.0,671.203,M,0.0,M,,*66
$GPVTG,0.000,T,0,M,1.684,N,3.118,K*50
$GPGSA,A,3,,,,,,,,,,,,,0.0,0.0,0.0*32
$GPRMC,071333.000,A,4647.832,N,00923.953,E,2.63,0.00,030911,,*04
$GPGGA,071333.000,4647.832,N,00923.953,E,1,00,0.0,670.594,M,0.0,M,,*6F
$GPVTG,0.000,T,0,M,2.632,N,4.874,K*5A
$GPGSA,A,3,,,,,,,,,,,,,0.0,0.0,0.0*32
$GPRMC,071334.000,A,4647.831,N,00923.954,E,3.01,0.00,030911,,*02
$GPGGA,071334.000,4647.831,N,00923.954,E,1,00,0.0,670.125,M,0.0,M,,*62
$GPVTG,0.000,T,0,M,3.012,N,5.577,K*50
$GPGSA,A,3,,,,,,,,,,,,,0.0,0.0,0.0*32
$GPRMC,071335.000,A,4647.830,N,00923.954,E,2.91,0.00,030911,,*0A
$GPGGA,071335.000,4647.830,N,00923.954,E,1,00,0.0,669.891,M,0.0,M,,*6C
$GPVTG,0.000,T,0,M,2.911,N,5.391,K*55
$GPGSA,A,3,,,,,,,,,,,,,0.0,0.0,0.0*32
$GPRMC,071336.000,A,4647.829,N,00923.955,E,2.92,0.00,030911,,*03
$GPGGA,071336.000,4647.829,N,00923.955,E,1,00,0.0,669.375,M,0.0,M,,*67
$GPVTG,0.000,T,0,M,2.922,N,5.411,K*5A
$GPGSA,A,3,,,,,,,,,,,,,0.0,0.0,0.0*32
$GPRMC,071337.000,A,4647.829,N,00923.957,E,2.75,0.00,030911,,*09
$GPGGA,071337.000,4647.829,N,00923.957,E,1,00,0.0,668.984,M,0.0,M,,*61
$GPVTG,0.000,T,0,M,2.752,N,5.097,K*59
$GPGSA,A,3,,,,,,,,,,,,,0.0,0.0,0.0*32
$GPRMC,071338.000,A,4647.828,N,00923.957,E,3.35,0.00,030911,,*02
$GPGGA,071338.000,4647.828,N,00923.957,E,1,00,0.0,668.141,M,0.0,M,,*6E
$GPVTG,0.000,T,0,M,3.349,N,6.202,K*5B
$GPGSA,A,3,,,,,,,,,,,,,0.0,0.0,0.0*32
$GPRMC,071339.000,A,4647.827,N,00923.958,E,2.61,0.00,030911,,*03
$GPGGA,071339.000,4647.827,N,00923.958,E,1,00,0.0,668.266,M,0.0,M,,*69
$GPVTG,0.000,T,0,M,2.605,N,4.825,K*5A
$GPGSA,A,3,,,,,,,,,,,,,0.0,0.0,0.0*32
$GPRMC,071340.000,A,4647.826,N,00923.959,E,3.08,0.00,030911,,*03
$GPGGA,071340.000,4647.826,N,00923.959,E,1,00,0.0,668.328,M,0.0,M,,*6C
$GPVTG,0.000,T,0,M,3.084,N,5.711,K*5D
$GPGSA,A,3,,,,,,,,,,,,,0.0,0.0,0.0*32
$GPRMC,071341.000,A,4647.826,N,00923.959,E,2.69,0.00,030911,,*04
$GPGGA,071341.000,4647.826,N,00923.959,E,1,00,0.0,668.203,M,0.0,M,,*65
$GPVTG,0.000,T,0,M,2.690,N,4.981,K*59
$GPGSA,A,3,,,,,,,,,,,,,0.0,0.0,0.0*32
$GPRMC,071342.000,A,4647.825,N,00923.959,E,2.33,0.00,030911,,*0B
$GPGGA,071342.000,4647.825,N,00923.959,E,1,00,0.0,667.719,M,0.0,M,,*64
$GPVTG,0.000,T,0,M,2.327,N,4.310,K*52
$GPGSA,A,3,,,,,,,,,,,,,0.0,0.0,0.0*32
$GPRMC,071343.000,A,4647.824,N,00923.960,E,3.54,0.00,030911,,*01
$GPGGA,071343.000,4647.824,N,00923.960,E,1,00,0.0,667.562,M,0.0,M,,*60
$GPVTG,0.000,T,0,M,3.541,N,6.558,K*5D
$GPGSA,A,3,,,,,,,,,,,,,0.0,0.0,0.0*32
$GPRMC,071344.000,A,4647.823,N,00923.961,E,3.42,0.00,030911,,*07
$GPGGA,071344.000,4647.823,N,00923.961,E,1,00,0.0,667.547,M,0.0,M,,*66
$GPVTG,0.000,T,0,M,3.420,N,6.333,K*50
$GPGSA,A,3,,,,,,,,,,,,,0.0,0.0,0.0*32
$GPRMC,071345.000,A,4647.823,N,00923.962,E,2.32,0.00,030911,,*03
$GPGGA,071345.000,4647.823,N,00923.962,E,1,00,0.0,667.531,M,0.0,M,,*65
$GPVTG,0.000,T,0,M,2.316,N,4.290,K*59
$GPGSA,A,3,,,,,,,,,,,,,0.0,0.0,0.0*32
$GPRMC,071346.000,A,4647.823,N,00923.962,E,2.20,0.00,030911,,*03
$GPGGA,071346.000,4647.823,N,00923.962,E,1,00,0.0,667.562,M,0.0,M,,*60
$GPVTG,0.000,T,0,M,2.202,N,4.079,K*58
$GPGSA,A,3,,,,,,,,,,,,,0.0,0.0,0.0*32
$GPRMC,071347.000,A,4647.822,N,00923.963,E,2.15,0.00,030911,,*04
$GPGGA,071347.000,4647.822,N,00923.963,E,1,00,0.0,667.734,M,0.0,M,,*60
$GPVTG,0.000,T,0,M,2.151,N,3.984,K*51
$GPGSA,A,3,,,,,,,,,,,,,0.0,0.0,0.0*32
$GPRMC,071348.000,A,4647.822,N,00923.963,E,2.25,0.00,030911,,*08
$GPGGA,071348.000,4647.822,N,00923.963,E,1,00,0.0,667.672,M,0.0,M,,*6C
$GPVTG,0.000,T,0,M,2.253,N,4.173,K*57
$GPGSA,A,3,,,,,,,,,,,,,0.0,0.0,0.0*32
$GPRMC,071349.000,A,4647.821,N,00923.964,E,2.78,0.00,030911,,*05
$GPGGA,071349.000,4647.821,N,00923.964,E,1,00,0.0,667.625,M,0.0,M,,*6B
$GPVTG,0.000,T,0,M,2.778,N,5.146,K*5C
$GPGSA,A,3,,,,,,,,,,,,,0.0,0.0,0.0*32
$GPRMC,071350.000,A,4647.820,N,00923.965,E,2.32,0.00,030911,,*03
$GPGGA,071350.000,4647.820,N,00923.965,E,1,00,0.0,667.641,M,0.0,M,,*61
$GPVTG,0.000,T,0,M,2.318,N,4.294,K*53
$GPGSA,A,3,,,,,,,,,,,,,0.0,0.0,0.0*32
$GPRMC,071351.000,A,4647.819,N,00923.965,E,2.72,0.00,030911,,*0C
$GPGGA,071351.000,4647.819,N,00923.965,E,1,00,0.0,667.703,M,0.0,M,,*6D
$GPVTG,0.000,T,0,M,2.718,N,5.033,K*59
$GPGSA,A,3,,,,,,,,,,,,,0.0,0.0,0.0*32
$GPRMC,071352.000,A,4647.819,N,00923.966,E,2.48,0.00,030911,,*05
$GPGGA,071352.000,4647.819,N,00923.966,E,1,00,0.0,667.719,M,0.0,M,,*66
$GPVTG,0.000,T,0,M,2.481,N,4.595,K*52
$GPGSA,A,3,,,,,,,,,,,,,0.0,0.0,0.0*32
$GPRMC,071353.000,A,4647.818,N,00923.967,E,2.13,0.00,030911,,*0A
$GPGGA,071353.000,4647.818,N,00923.967,E,1,00,0.0,667.734,M,0.0,M,,*68
$GPVTG,0.000,T,0,M,2.131,N,3.946,K*59
$GPGSA,A,3,,,,,,,,,,,,,0.0,0.0,0.0*32
$GPRMC,071354.000,A,4647.818,N,00923.968,E,3.09,0.00,030911,,*08
$GPGGA,071354.000,4647.818,N,00923.968,E,1,00,0.0,667.766,M,0.0,M,,*67
$GPVTG,0.000,T,0,M,3.089,N,5.720,K*52
$GPGSA,A,3,,,,,,,,,,,,,0.0,0.0,0.0*32
$GPRMC,071355.000,A,4647.817,N,00923.968,E,3.19,0.00,030911,,*07
$GPGGA,071355.000,4647.817,N,00923.968,E,1,00,0.0,667.766,M,0.0,M,,*69
$GPVTG,0.000,T,0,M,3.190,N,5.908,K*5F
$GPGSA,A,3,,,,,,,,,,,,,0.0,0.0,0.0*32
$GPRMC,071356.000,A,4647.816,N,00923.969,E,3.27,0.00,030911,,*09
$GPGGA,071356.000,4647.816,N,00923.969,E,1,00,0.0,667.781,M,0.0,M,,*63
$GPVTG,0.000,T,0,M,3.265,N,6.047,K*57
$GPGSA,A,3,,,,,,,,,,,,,0.0,0.0,0.0*32
$GPRMC,071357.000,A,4647.815,N,00923.970,E,2.83,0.00,030911,,*0C
$GPGGA,071357.000,4647.815,N,00923.970,E,1,00,0.0,667.781,M,0.0,M,,*69
$GPVTG,0.000,T,0,M,2.833,N,5.246,K*5F
$GPGSA,A,3,,,,,,,,,,,,,0.0,0.0,0.0*32
$GPRMC,071358.000,A,4647.815,N,00923.971,E,2.86,0.00,030911,,*07
$GPGGA,071358.000,4647.815,N,00923.971,E,1,00,0.0,667.766,M,0.0,M,,*6E
$GPVTG,0.000,T,0,M,2.861,N,5.299,K*5A
$GPGSA,A,3,,,,,,,,,,,,,0.0,0.0,0.0*32
$GPRMC,071359.000,A,4647.814,N,00923.972,E,2.75,0.00,030911,,*08
$GPGGA,071359.000,4647.814,N,00923.972,E,1,00,0.0,667.750,M,0.0,M,,*68
$GPVTG,0.000,T,0,M,2.746,N,5.086,K*5C
$GPGSA,A,3,,,,,,,,,,,,,0.0,0.0,0.0*32
$GPRMC,071400.000,A,4647.815,N,00923.974,E,3.23,0.00,030911,,*06
$GPGGA,071400.000,4647.815,N,00923.974,E,1,00,0.0,667.781,M,0.0,M,,*68
$GPVTG,0.000,T,0,M,3.228,N,5.978,K*58
$GPGSA,A,3,,,,,,,,,,,,,0.0,0.0,0.0*32
$GPRMC,071401.000,A,4647.815,N,00923.974,E,2.08,0.00,030911,,*0F
$GPGGA,071401.000,4647.815,N,00923.974,E,1,00,0.0,667.844,M,0.0,M,,*6F
$GPVTG,0.000,T,0,M,2.078,N,3.849,K*5B
$GPGSA,A,3,,,,,,,,,,,,,0.0,0.0,0.0*32
$GPRMC,071402.000,A,4647.815,N,00923.975,E,2.33,0.00,030911,,*05
$GPGGA,071402.000,4647.815,N,00923.975,E,1,00,0.0,667.906,M,0.0,M,,*6A
$GPVTG,0.000,T,0,M,2.331,N,4.317,K*52
$GPGSA,A,3,,,,,,,,,,,,,0.0,0.0,0.0*32
$GPRMC,071403.000,A,4647.814,N,00923.976,E,2.22,0.00,030911,,*06
$GPGGA,071403.000,4647.814,N,00923.976,E,1,00,0.0,667.859,M,0.0,M,,*62
$GPVTG,0.000,T,0,M,2.215,N,4.103,K*52
$GPGSA,A,3,,,,,,,,,,,,,0.0,0.0,0.0*32
$GPRMC,071404.000,A,4647.813,N,00923.977,E,2.91,0.00,030911,,*0F
$GPGGA,071404.000,4647.813,N,00923.977,E,1,00,0.0,667.672,M,0.0,M,,*64
$GPVTG,0.000,T,0,M,2.909,N,5.388,K*54
$GPGSA,A,3,,,,,,,,,,,,,0.0,0.0,0.0*32
$GPRMC,071405.000,A,4647.812,N,00923.979,E,2.37,0.00,030911,,*0D
$GPGGA,071405.000,4647.812,N,00923.979,E,1,00,0.0,667.703,M,0.0,M,,*6D
$GPVTG,0.000,T,0,M,2.368,N,4.385,K*55
$GPGSA,A,3,,,,,,,,,,,,,0.0,0.0,0.0*32
$GPRMC,071406.000,A,4647.811,N,00923.979,E,2.95,0.00,030911,,*05
$GPGGA,071406.000,4647.811,N,00923.979,E,1,00,0.0,667.672,M,0.0,M,,*6A
$GPVTG,0.000,T,0,M,2.948,N,5.460,K*50
$GPGSA,A,3,,,,,,,,,,,,,0.0,0.0,0.0*32
$GPRMC,071407.000,A,4647.811,N,00923.980,E,2.62,0.00,030911,,*0A
$GPGGA,071407.000,4647.811,N,00923.980,E,1,00,0.0,667.719,M,0.0,M,,*61
$GPVTG,0.000,T,0,M,2.617,N,4.846,K*5C
$GPGSA,A,3,,,,,,,,,,,,,0.0,0.0,0.0*32
$GPRMC,071408.000,A,4647.810,N,00923.981,E,2.64,0.00,030911,,*03
$GPGGA,071408.000,4647.810,N,00923.981,E,1,00,0.0,667.688,M,0.0,M,,*67
$GPVTG,0.000,T,0,M,2.642,N,4.894,K*53
$GPGSA,A,3,,,,,,,,,,,,,0.0,0.0,0.0*32
$GPRMC,071409.000,A,4647.810,N,00923.982,E,1.80,0.00,030911,,*08
$GPGGA,071409.000,4647.810,N,00923.982,E,1,00,0.0,667.531,M,0.0,M,,*64
$GPVTG,0.000,T,0,M,1.797,N,3.328,K*52
$GPGSA,A,3,,,,,,,,,,,,,0.0,0.0,0.0*32
$GPRMC,071410.000,A,4647.809,N,00923.982,E,2.40,0.00,030911,,*07
$GPGGA,071410.000,4647.809,N,00923.982,E,1,00,0.0,667.344,M,0.0,M,,*60
$GPVTG,0.000,T,0,M,2.402,N,4.448,K*58
$GPGSA,A,3,,,,,,,,,,,,,0.0,0.0,0.0*32
$GPRMC,071411.000,A,4647.809,N,00923.983,E,1.44,0.00,030911,,*00
$GPGGA,071411.000,4647.809,N,00923.983,E,1,00,0.0,667.516,M,0.0,M,,*61
$GPVTG,0.000,T,0,M,1.435,N,2.658,K*5A
$GPGSA,A,3,,,,,,,,,,,,,0.0,0.0,0.0*32
$GPRMC,071412.000,A,4647.808,N,00923.983,E,1.37,0.00,030911,,*06
$GPGGA,071412.000,4647.808,N,00923.983,E,1,00,0.0,667.359,M,0.0,M,,*6E
$GPVTG,0.000,T,0,M,1.374,N,2.544,K*56
$GPGSA,A,3,,,,,,,,,,,,,0.0,0.0,0.0*32
$GPRMC,071413.000,A,4647.808,N,00923.983,E,0.68,0.00,030911,,*0C
$GPGGA,071413.000,4647.808,N,00923.983,E,1,00,0.0,667.625,M,0.0,M,,*61
$GPVTG,0.000,T,0,M,0.679,N,1.258,K*56
$GPGSA,A,3,,,,,,,,,,,,,0.0,0.0,0.0*32
$GPRMC,071414.000,A,4647.808,N,00923.984,E,0.38,0.00,030911,,*09
$GPGGA,071414.000,4647.808,N,00923.984,E,1,00,0.0,668.359,M,0.0,M,,*60
$GPVTG,0.000,T,0,M,0.380,N,0.704,K*58
$GPGSA,A,3,,,,,,,,,,,,,0.0,0.0,0.0*32
$GPRMC,071415.000,A,4647.808,N,00923.985,E,0.15,0.00,030911,,*06
$GPGGA,071415.000,4647.808,N,00923.985,E,1,00,0.0,667.812,M,0.0,M,,*6B
$GPVTG,0.000,T,0,M,0.146,N,0.270,K*56
$GPGSA,A,3,,,,,,,,,,,,,0.0,0.0,0.0*32
$GPRMC,071416.000,A,4647.808,N,00923.984,E,0.07,0.00,030911,,*07
$GPGGA,071416.000,4647.808,N,00923.984,E,1,00,0.0,666.359,M,0.0,M,,*6C
$GPVTG,0.000,T,0,M,0.067,N,0.125,K*57
$GPGSA,A,3,,,,,,,,,,,,,0.0,0.0,0.0*32
$GPRMC,071417.000,A,4647.808,N,00923.984,E,0.34,0.00,030911,,*06
$GPGGA,071417.000,4647.808,N,00923.984,E,1,00,0.0,666.344,M,0.0,M,,*61
$GPVTG,0.000,T,0,M,0.336,N,0.622,K*50
$GPGSA,A,3,,,,,,,,,,,,,0.0,0.0,0.0*32
$GPRMC,071418.000,A,4647.808,N,00923.984,E,0.53,0.00,030911,,*08
$GPGGA,071418.000,4647.808,N,00923.984,E,1,00,0.0,666.328,M,0.0,M,,*64
$GPVTG,0.000,T,0,M,0.529,N,0.980,K*5F
$GPGSA,A,3,,,,,,,,,,,,,0.0,0.0,0.0*32
$GPRMC,071419.000,A,4647.808,N,00923.984,E,0.82,0.00,030911,,*05
$GPGGA,071419.000,4647.808,N,00923.984,E,1,00,0.0,666.312,M,0.0,M,,*6C
$GPVTG,0.000,T,0,M,0.822,N,1.522,K*5C
$GPGSA,A,3,,,,,,,,,,,,,0.0,0.0,0.0*32
$GPRMC,071420.000,A,4647.807,N,00923.985,E,1.07,0.00,030911,,*0D
$GPGGA,071420.000,4647.807,N,00923.985,E,1,00,0.0,666.344,M,0.0,M,,*6B
$GPVTG,0.000,T,0,M,1.072,N,1.985,K*51
$GPGSA,A,3,,,,,,,,,,,,,0.0,0.0,0.0*32
$GPRMC,071421.000,A,4647.807,N,00923.985,E,1.41,0.00,030911,,*0E
$GPGGA,071421.000,4647.807,N,00923.985,E,1,00,0.0,666.219,M,0.0,M,,*63
$GPVTG,0.000,T,0,M,1.411,N,2.613,K*53
$GPGSA,A,3,,,,,,,,,,,,,0.0,0.0,0.0*32
$GPRMC,071422.000,A,4647.807,N,00923.986,E,1.57,0.00,030911,,*09
$GPGGA,071422.000,4647.807,N,00923.986,E,1,00,0.0,666.188,M,0.0,M,,*68
$GPVTG,0.000,T,0,M,1.566,N,2.901,K*5E
$GPGSA,A,3,,,,,,,,,,,,,0.0,0.0,0.0*32
$GPRMC,071423.000,A,4647.806,N,00923.986,E,2.45,0.00,030911,,*09
$GPGGA,071423.000,4647.806,N,00923.986,E,1,00,0.0,665.953,M,0.0,M,,*65
$GPVTG,0.000,T,0,M,2.454,N,4.544,K*56
$GPGSA,A,3,,,,,,,,,,,,,0.0,0.0,0.0*32
$GPRMC,071424.000,A,4647.805,N,00923.988,E,3.17,0.00,030911,,*05
$GPGGA,071424.000,4647.805,N,00923.988,E,1,00,0.0,665.953,M,0.0,M,,*6F
$GPVTG,0.000,T,0,M,3.171,N,5.874,K*5A
$GPGSA,A,3,,,,,,,,,,,,,0.0,0.0,0.0*32
$GPRMC,071425.000,A,4647.805,N,00923.989,E,2.62,0.00,030911,,*06
$GPGGA,071425.000,4647.805,N,00923.989,E,1,00,0.0,666.016,M,0.0,M,,*64
$GPVTG,0.000,T,0,M,2.622,N,4.856,K*5B
$GPGSA,A,3,,,,,,,,,,,,,0.0,0.0,0.0*32
$GPRMC,071426.000,A,4647.804,N,00923.990,E,3.41,0.00,030911,,*0C
$GPGGA,071426.000,4647.804,N,00923.990,E,1,00,0.0,665.766,M,0.0,M,,*6D
$GPVTG,0.000,T,0,M,3.410,N,6.316,K*54
$GPGSA,A,3,,,,,,,,,,,,,0.0,0.0,0.0*32
$GPRMC,071427.000,A,4647.804,N,00923.991,E,3.01,0.00,030911,,*08
$GPGGA,071427.000,4647.804,N,00923.991,E,1,00,0.0,665.344,M,0.0,M,,*69
$GPVTG,0.000,T,0,M,3.013,N,5.580,K*59
$GPGSA,A,3,,,,,,,,,,,,,0.0,0.0,0.0*32
$GPRMC,071428.000,A,4647.803,N,00923.992,E,2.64,0.00,030911,,*01
$GPGGA,071428.000,4647.803,N,00923.992,E,1,00,0.0,665.188,M,0.0,M,,*60
$GPVTG,0.000,T,0,M,2.640,N,4.889,K*5D
$GPGSA,A,3,,,,,,,,,,,,,0.0,0.0,0.0*32
$GPRMC,071429.000,A,4647.802,N,00923.992,E,2.90,0.00,030911,,*0A
$GPGGA,071429.000,4647.802,N,00923.992,E,1,00,0.0,665.125,M,0.0,M,,*67
$GPVTG,0.000,T,0,M,2.900,N,5.371,K*5B
$GPGSA,A,3,,,,,,,,,,,,,0.0,0.0,0.0*32
$GPRMC,071430.000,A,4647.802,N,00923.993,E,2.69,0.00,030911,,*05
$GPGGA,071430.000,4647.802,N,00923.993,E,1,00,0.0,665.078,M,0.0,M,,*67
$GPVTG,0.000,T,0,M,2.687,N,4.977,K*56
$GPGSA,A,3,,,,,,,,,,,,,0.0,0.0,0.0*32
$GPRMC,071431.000,A,4647.801,N,00923.994,E,2.96,0.00,030911,,*00
$GPGGA,071431.000,4647.801,N,00923.994,E,1,00,0.0,665.047,M,0.0,M,,*6E
$GPVTG,0.000,T,0,M,2.959,N,5.480,K*5E
$GPGSA,A,3,,,,,,,,,,,,,0.0,0.0,0.0*32
$GPRMC,071432.000,A,4647.801,N,00923.995,E,3.19,0.00,030911,,*04
$GPGGA,071432.000,4647.801,N,00923.995,E,1,00,0.0,665.000,M,0.0,M,,*6F
$GPVTG,0.000,T,0,M,3.191,N,5.910,K*57
$GPGSA,A,3,,,,,,,,,,,,,0.0,0.0,0.0*32
$GPRMC,071433.000,A,4647.800,N,00923.995,E,3.24,0.00,030911,,*0A
$GPGGA,071433.000,4647.800,N,00923.995,E,1,00,0.0,665.000,M,0.0,M,,*6F
$GPVTG,0.000,T,0,M,3.240,N,6.000,K*53
$GPGSA,A,3,,,,,,,,,,,,,0.0,0.0,0.0*32
$GPRMC,071434.000,A,4647.799,N,00923.996,E,2.60,0.00,030911,,*00
$GPGGA,071434.000,4647.799,N,00923.996,E,1,00,0.0,664.984,M,0.0,M,,*60
$GPVTG,0.000,T,0,M,2.600,N,4.814,K*5D
$GPGSA,A,3,,,,,,,,,,,,,0.0,0.0,0.0*32
$GPRMC,071435.000,A,4647.800,N,00923.997,E,2.87,0.00,030911,,*06
$GPGGA,071435.000,4647.800,N,00923.997,E,1,00,0.0,665.156,M,0.0,M,,*69
$GPVTG,0.000,T,0,M,2.873,N,5.321,K*5B
$GPGSA,A,3,,,,,,,,,,,,,0.0,0.0,0.0*32
$GPRMC,071436.000,A,4647.799,N,00923.998,E,2.59,0.00,030911,,*06
$GPGGA,071436.000,4647.799,N,00923.998,E,1,00,0.0,665.250,M,0.0,M,,*6F
$GPVTG,0.000,T,0,M,2.587,N,4.792,K*50
$GPGSA,A,3,,,,,,,,,,,,,0.0,0.0,0.0*32
$GPRMC,071437.000,A,4647.799,N,00923.999,E,2.69,0.00,030911,,*05
$GPGGA,071437.000,4647.799,N,00923.999,E,1,00,0.0,665.562,M,0.0,M,,*69
$GPVTG,0.000,T,0,M,2.690,N,4.982,K*5A
$GPGSA,A,3,,,,,,,,,,,,,0.0,0.0,0.0*32
$GPRMC,071438.000,A,4647.798,N,00924.000,E,2.38,0.00,030911,,*01
$GPGGA,071438.000,4647.798,N,00924.000,E,1,00,0.0,665.719,M,0.0,M,,*67
$GPVTG,0.000,T,0,M,2.382,N,4.411,K*5B
$GPGSA,A,3,,,,,,,,,,,,,0.0,0.0,0.0*32
$GPRMC,071439.000,A,4647.797,N,00924.001,E,2.32,0.00,030911,,*04
$GPGGA,071439.000,4647.797,N,00924.001,E,1,00,0.0,665.719,M,0.0,M,,*68
$GPVTG,0.000,T,0,M,2.320,N,4.297,K*5B
$GPGSA,A,3,,,,,,,,,,,,,0.0,0.0,0.0*32
$GPRMC,071440.000,A,4647.797,N,00924.002,E,2.75,0.00,030911,,*0A
$GPGGA,071440.000,4647.797,N,00924.002,E,1,00,0.0,665.781,M,0.0,M,,*64
$GPVTG,0.000,T,0,M,2.747,N,5.087,K*5C
$GPGSA,A,3,,,,,,,,,,,,,0.0,0.0,0.0*32
$GPRMC,071441.000,A,4647.796,N,00924.003,E,2.82,0.00,030911,,*03
$GPGGA,071441.000,4647.796,N,00924.003,E,1,00,0.0,665.781,M,0.0,M,,*65
$GPVTG,0.000,T,0,M,2.823,N,5.227,K*59
$GPGSA,A,3,,,,,,,,,,,,,0.0,0.0,0.0*32
$GPRMC,071442.000,A,4647.796,N,00924.003,E,2.67,0.00,030911,,*0B
$GPGGA,071442.000,4647.796,N,00924.003,E,1,00,0.0,665.797,M,0.0,M,,*61
$GPVTG,0.000,T,0,M,2.668,N,4.941,K*52
$GPGSA,A,3,,,,,,,,,,,,,0.0,0.0,0.0*32
$GPRMC,071443.000,A,4647.795,N,00924.004,E,2.17,0.00,030911,,*09
$GPGGA,071443.000,4647.795,N,00924.004,E,1,00,0.0,666.047,M,0.0,M,,*6D
$GPVTG,0.000,T,0,M,2.173,N,4.025,K*54
$GPGSA,A,3,,,,,,,,,,,,,0.0,0.0,0.0*32
$GPRMC,071444.000,A,4647.795,N,00924.005,E,2.61,0.00,030911,,*0E
$GPGGA,071444.000,4647.795,N,00924.005,E,1,00,0.0,666.047,M,0.0,M,,*6B
$GPVTG,0.000,T,0,M,2.611,N,4.836,K*5D
$GPGSA,A,3,,,,,,,,,,,,,0.0,0.0,0.0*32
$GPRMC,071445.000,A,4647.794,N,00924.006,E,2.39,0.00,030911,,*00
$GPGGA,071445.000,4647.794,N,00924.006,E,1,00,0.0,666.234,M,0.0,M,,*6E
$GPVTG,0.000,T,0,M,2.387,N,4.421,K*5D
$GPGSA,A,3,,,,,,,,,,,,,0.0,0.0,0.0*32
$GPRMC,071446.000,A,4647.794,N,00924.007,E,2.02,0.00,030911,,*0A
$GPGGA,071446.000,4647.794,N,00924.007,E,1,00,0.0,666.328,M,0.0,M,,*60
$GPVTG,0.000,T,0,M,2.019,N,3.739,K*54
$GPGSA,A,3,,,,,,,,,,,,,0.0,0.0,0.0*32
$GPRMC,071447.000,A,4647.793,N,00924.007,E,2.79,0.00,030911,,*00
$GPGGA,071447.000,4647.793,N,00924.007,E,1,00,0.0,666.312,M,0.0,M,,*6F
$GPVTG,0.000,T,0,M,2.795,N,5.176,K*5C
$GPGSA,A,3,,,,,,,,,,,,,0.0,0.0,0.0*32
$GPRMC,071448.000,A,4647.793,N,00924.008,E,2.62,0.00,030911,,*0A
$GPGGA,071448.000,4647.793,N,00924.008,E,1,00,0.0,666.453,M,0.0,M,,*6D
$GPVTG,0.000,T,0,M,2.619,N,4.850,K*55
$GPGSA,A,3,,,,,,,,,,,,,0.0,0.0,0.0*32
$GPRMC,071449.000,A,4647.792,N,00924.009,E,2.53,0.00,030911,,*09
$GPGGA,071449.000,4647.792,N,00924.009,E,1,00,0.0,666.531,M,0.0,M,,*69
$GPVTG,0.000,T,0,M,2.533,N,4.691,K*5D
$GPGSA,A,3,,,,,,,,,,,,,0.0,0.0,0.0*32
$GPRMC,071450.000,A,4647.792,N,00924.010,E,2.08,0.00,030911,,*07
$GPGGA,071450.000,4647.792,N,00924.010,E,1,00,0.0,666.547,M,0.0,M,,*68
$GPVTG,0.000,T,0,M,2.085,N,3.861,K*53
$GPGSA,A,3,,,,,,,,,,,,,0.0,0.0,0.0*32
$GPRMC,071451.000,A,4647.792,N,00924.011,E,2.16,0.00,030911,,*08
$GPGGA,071451.000,4647.792,N,00924.011,E,1,00,0.0,666.719,M,0.0,M,,*61
$GPVTG,0.000,T,0,M,2.160,N,4.000,K*51
$GPGSA,A,3,,,,,,,,,,,,,0.0,0.0,0.0*32
$GPRMC,071452.000,A,4647.792,N,00924.011,E,1.82,0.00,030911,,*05
$GPGGA,071452.000,4647.792,N,00924.011,E,1,00,0.0,666.875,M,0.0,M,,*67
$GPVTG,0.000,T,0,M,1.816,N,3.363,K*5B
$GPGSA,A,3,,,,,,,,,,,,,0.0,0.0,0.0*32
$GPRMC,071453.000,A,4647.791,N,00924.012,E,3.03,0.00,030911,,*0F
$GPGGA,071453.000,4647.791,N,00924.012,E,1,00,0.0,666.844,M,0.0,M,,*64
$GPVTG,0.000,T,0,M,3.028,N,5.609,K*53
$GPGSA,A,3,,,,,,,,,,,,,0.0,0.0,0.0*32
$GPRMC,071454.000,A,4647.791,N,00924.013,E,2.89,0.00,030911,,*0A
$GPGGA,071454.000,4647.791,N,00924.013,E,1,00,0.0,667.000,M,0.0,M,,*6B
$GPVTG,0.000,T,0,M,2.885,N,5.343,K*56
$GPGSA,A,3,,,,,,,,,,,,,0.0,0.0,0.0*32
$GPRMC,071455.000,A,4647.790,N,00924.014,E,2.51,0.00,030911,,*08
$GPGGA,071455.000,4647.790,N,00924.014,E,1,00,0.0,667.078,M,0.0,M,,*63
$GPVTG,0.000,T,0,M,2.514,N,4.656,K*53
$GPGSA,A,3,,,,,,,,,,,,,0.0,0.0,0.0*32
$GPRMC,071456.000,A,4647.790,N,00924.015,E,2.04,0.00,030911,,*0A
$GPGGA,071456.000,4647.790,N,00924.015,E,1,00,0.0,667.188,M,0.0,M,,*6F
$GPVTG,0.000,T,0,M,2.036,N,3.770,K*54
$GPGSA,A,3,,,,,,,,,,,,,0.0,0.0,0.0*32
$GPRMC,071457.000,A,4647.789,N,00924.016,E,2.52,0.00,030911,,*03
$GPGGA,071457.000,4647.789,N,00924.016,E,1,00,0.0,667.141,M,0.0,M,,*60
$GPVTG,0.000,T,0,M,2.524,N,4.674,K*50
$GPGSA,A,3,,,,,,,,,,,,,0.0,0.0,0.0*32
$GPRMC,071458.000,A,4647.788,N,00924.017,E,3.29,0.00,030911,,*01
$GPGGA,071458.000,4647.788,N,00924.017,E,1,00,0.0,667.234,M,0.0,M,,*6E
$GPVTG,0.000,T,0,M,3.289,N,6.090,K*5F
$GPGSA,A,3,,,,,,,,,,,,,0.0,0.0,0.0*32
$GPRMC,071459.000,A,4647.788,N,00924.017,E,2.35,0.00,030911,,*0C
$GPGGA,071459.000,4647.788,N,00924.017,E,1,00,0.0,667.359,M,0.0,M,,*65
$GPVTG,0.000,T,0,M,2.352,N,4.356,K*52
$GPGSA,A,3,,,,,,,,,,,,,0.0,0.0,0.0*32
$GPRMC,071500.000,A,4647.787,N,00924.018,E,2.29,0.00,030911,,*0C
$GPGGA,071500.000,4647.787,N,00924.018,E,1,00,0.0,667.797,M,0.0,M,,*6E
$GPVTG,0.000,T,0,M,2.290,N,4.241,K*5A
$GPGSA,A,3,,,,,,,,,,,,,0.0,0.0,0.0*32
$GPRMC,071501.000,A,4647.787,N,00924.019,E,2.73,0.00,030911,,*03
$GPGGA,071501.000,4647.787,N,00924.019,E,1,00,0.0,667.984,M,0.0,M,,*62
$GPVTG,0.000,T,0,M,2.729,N,5.055,K*5B
$GPGSA,A,3,,,,,,,,,,,,,0.0,0.0,0.0*32
$GPRMC,071502.000,A,4647.786,N,00924.020,E,2.43,0.00,030911,,*08
$GPGGA,071502.000,4647.786,N,00924.020,E,1,00,0.0,668.188,M,0.0,M,,*61
$GPVTG,0.000,T,0,M,2.430,N,4.500,K*54
$GPGSA,A,3,,,,,,,,,,,,,0.0,0.0,0.0*32
$GPRMC,071503.000,A,4647.786,N,00924.021,E,2.64,0.00,030911,,*0D
$GPGGA,071503.000,4647.786,N,00924.021,E,1,00,0.0,668.219,M,0.0,M,,*6A
$GPVTG,0.000,T,0,M,2.644,N,4.897,K*56
$GPGSA,A,3,,,,,,,,,,,,,0.0,0.0,0.0*32
$GPRMC,071504.000,A,4647.785,N,00924.022,E,2.65,0.00,030911,,*0B
$GPGGA,071504.000,4647.785,N,00924.022,E,1,00,0.0,668.250,M,0.0,M,,*60
$GPVTG,0.000,T,0,M,2.648,N,4.904,K*51
$GPGSA,A,3,,,,,,,,,,,,,0.0,0.0,0.0*32
$GPRMC,071505.000,A,4647.785,N,00924.023,E,2.84,0.00,030911,,*04
$GPGGA,071505.000,4647.785,N,00924.023,E,1,00,0.0,668.297,M,0.0,M,,*6B
$GPVTG,0.000,T,0,M,2.838,N,5.257,K*54
$GPGSA,A,3,,,,,,,,,,,,,0.0,0.0,0.0*32
$GPRMC,071506.000,A,4647.784,N,00924.024,E,2.40,0.00,030911,,*09
$GPGGA,071506.000,4647.784,N,00924.024,E,1,00,0.0,668.656,M,0.0,M,,*67
$GPVTG,0.000,T,0,M,2.397,N,4.438,K*54
$GPGSA,A,3,,,,,,,,,,,,,0.0,0.0,0.0*32
$GPRMC,071507.000,A,4647.784,N,00924.025,E,2.83,0.00,030911,,*06
$GPGGA,071507.000,4647.784,N,00924.025,E,1,00,0.0,668.750,M,0.0,M,,*60
$GPVTG,0.000,T,0,M,2.830,N,5.242,K*58
$GPGSA,A,3,,,,,,,,,,,,,0.0,0.0,0.0*32
$GPRMC,071508.000,A,4647.784,N,00924.025,E,2.25,0.00,030911,,*05
$GPGGA,071508.000,4647.784,N,00924.025,E,1,00,0.0,668.891,M,0.0,M,,*6D
$GPVTG,0.000,T,0,M,2.253,N,4.173,K*57
$GPGSA,A,3,,,,,,,,,,,,,0.0,0.0,0.0*32
$GPRMC,071509.000,A,4647.783,N,00924.027,E,2.36,0.00,030911,,*03
$GPGGA,071509.000,4647.783,N,00924.027,E,1,00,0.0,668.969,M,0.0,M,,*6F
$GPVTG,0.000,T,0,M,2.358,N,4.367,K*5A
$GPGSA,A,3,,,,,,,,,,,,,0.0,0.0,0.0*32
$GPRMC,071510.000,A,4647.783,N,00924.028,E,2.53,0.00,030911,,*07
$GPGGA,071510.000,4647.783,N,00924.028,E,1,00,0.0,668.828,M,0.0,M,,*6C
$GPVTG,0.000,T,0,M,2.534,N,4.694,K*5F
$GPGSA,A,3,,,,,,,,,,,,,0.0,0.0,0.0*32
$GPRMC,071511.000,A,4647.783,N,00924.029,E,3.08,0.00,030911,,*08
$GPGGA,071511.000,4647.783,N,00924.029,E,1,00,0.0,668.922,M,0.0,M,,*67
$GPVTG,0.000,T,0,M,3.080,N,5.703,K*5A
$GPGSA,A,3,,,,,,,,,,,,,0.0,0.0,0.0*32
$GPRMC,071512.000,A,4647.782,N,00924.030,E,2.52,0.00,030911,,*0C
$GPGGA,071512.000,4647.782,N,00924.030,E,1,00,0.0,668.938,M,0.0,M,,*66
$GPVTG,0.000,T,0,M,2.518,N,4.664,K*5E
$GPGSA,A,3,,,,,,,,,,,,,0.0,0.0,0.0*32
$GPRMC,071513.000,A,4647.781,N,00924.031,E,3.18,0.00,030911,,*00
$GPGGA,071513.000,4647.781,N,00924.031,E,1,00,0.0,668.984,M,0.0,M,,*62
$GPVTG,0.000,T,0,M,3.176,N,5.881,K*57
$GPGSA,A,3,,,,,,,,,,,,,0.0,0.0,0.0*32
$GPRMC,071514.000,A,4647.780,N,00924.032,E,2.79,0.00,030911,,*03
$GPGGA,071514.000,4647.780,N,00924.032,E,1,00,0.0,669.250,M,0.0,M,,*64
$GPVTG,0.000,T,0,M,2.789,N,5.164,K*52
$GPGSA,A,3,,,,,,,,,,,,,0.0,0.0,0.0*32
$GPRMC,071515.000,A,4647.780,N,00924.033,E,2.72,0.00,030911,,*08
$GPGGA,071515.000,4647.780,N,00924.033,E,1,00,0.0,669.391,M,0.0,M,,*68
$GPVTG,0.000,T,0,M,2.716,N,5.030,K*54
$GPGSA,A,3,,,,,,,,,,,,,0.0,0.0,0.0*32
$GPRMC,071516.000,A,4647.780,N,00924.034,E,2.61,0.00,030911,,*0E
$GPGGA,071516.000,4647.780,N,00924.034,E,1,00,0.0,669.500,M,0.0,M,,*62
$GPVTG,0.000,T,0,M,2.608,N,4.831,K*52
$GPGSA,A,3,,,,,,,,,,,,,0.0,0.0,0.0*32
$GPRMC,071517.000,A,4647.779,N,00924.035,E,2.48,0.00,030911,,*03
$GPGGA,071517.000,4647.779,N,00924.035,E,1,00,0.0,669.609,M,0.0,M,,*6E
$GPVTG,0.000,T,0,M,2.484,N,4.600,K*58
$GPGSA,A,3,,,,,,,,,,,,,0.0,0.0,0.0*32
$GPRMC,071518.000,A,4647.778,N,00924.035,E,2.68,0.00,030911,,*0F
$GPGGA,071518.000,4647.778,N,00924.035,E,1,00,0.0,669.703,M,0.0,M,,*6B
$GPVTG,0.000,T,0,M,2.677,N,4.958,K*54
$GPGSA,A,3,,,,,,,,,,,,,0.0,0.0,0.0*32
$GPRMC,071519.000,A,4647.778,N,00924.036,E,3.02,0.00,030911,,*00
$GPGGA,071519.000,4647.778,N,00924.036,E,1,00,0.0,669.781,M,0.0,M,,*63
$GPVTG,0.000,T,0,M,3.017,N,5.587,K*5A
$GPGSA,A,3,,,,,,,,,,,,,0.0,0.0,0.0*32
$GPRMC,071520.000,A,4647.777,N,00924.038,E,3.58,0.00,030911,,*04
$GPGGA,071520.000,4647.777,N,00924.038,E,1,00,0.0,669.875,M,0.0,M,,*6C
$GPVTG,0.000,T,0,M,3.577,N,6.625,K*51
$GPGSA,A,3,,,,,,,,,,,,,0.0,0.0,0.0*32
$GPRMC,071521.000,A,4647.777,N,00924.039,E,3.83,0.00,030911,,*02
$GPGGA,071521.000,4647.777,N,00924.039,E,1,00,0.0,669.969,M,0.0,M,,*60
$GPVTG,0.000,T,0,M,3.831,N,7.095,K*52
$GPGSA,A,3,,,,,,,,,,,,,0.0,0.0,0.0*32
$GPRMC,071522.000,A,4647.776,N,00924.041,E,4.62,0.00,030911,,*07
$GPGGA,071522.000,4647.776,N,00924.041,E,1,00,0.0,670.062,M,0.0,M,,*67
$GPVTG,0.000,T,0,M,4.617,N,8.552,K*5E
$GPGSA,A,3,,,,,,,,,,,,,0.0,0.0,0.0*32
$GPRMC,071523.000,A,4647.776,N,00924.041,E,3.25,0.00,030911,,*02
$GPGGA,071523.000,4647.776,N,00924.041,E,1,00,0.0,670.047,M,0.0,M,,*61
$GPVTG,0.000,T,0,M,3.252,N,6.022,K*50
$GPGSA,A,3,,,,,,,,,,,,,0.0,0.0,0.0*32
$GPRMC,071524.000,A,4647.776,N,00924.042,E,2.47,0.00,030911,,*03
$GPGGA,071524.000,4647.776,N,00924.042,E,1,00,0.0,670.203,M,0.0,M,,*67
$GPVTG,0.000,T,0,M,2.472,N,4.578,K*5D
$GPGSA,A,3,,,,,,,,,,,,,0.0,0.0,0.0*32
$GPRMC,071525.000,A,4647.775,N,00924.043,E,2.26,0.00,030911,,*07
$GPGGA,071525.000,4647.775,N,00924.043,E,1,00,0.0,670.312,M,0.0,M,,*65
$GPVTG,0.000,T,0,M,2.263,N,4.192,K*5B
$GPGSA,A,3,,,,,,,,,,,,,0.0,0.0,0.0*32
$GPRMC,071526.000,A,4647.774,N,00924.045,E,1.91,0.00,030911,,*0C
$GPGGA,071526.000,4647.774,N,00924.045,E,1,00,0.0,670.922,M,0.0,M,,*68
$GPVTG,0.000,T,0,M,1.909,N,3.536,K*52
$GPGSA,A,3,,,,,,,,,,,,,0.0,0.0,0.0*32
$GPRMC,071527.000,A,4647.773,N,00924.045,E,2.02,0.00,030911,,*03
$GPGGA,071527.000,4647.773,N,00924.045,E,1,00,0.0,671.031,M,0.0,M,,*64
$GPVTG,0.000,T,0,M,2.017,N,3.735,K*56
$GPGSA,A,3,,,,,,,,,,,,,0.0,0.0,0.0*32
$GPRMC,071528.000,A,4647.773,N,00924.046,E,1.96,0.00,030911,,*01
$GPGGA,071528.000,4647.773,N,00924.046,E,1,00,0.0,671.156,M,0.0,M,,*68
$GPVTG,0.000,T,0,M,1.959,N,3.629,K*5A
$GPGSA,A,3,,,,,,,,,,,,,0.0,0.0,0.0*32
$GPRMC,071529.000,A,4647.772,N,00924.047,E,2.32,0.00,030911,,*0D
$GPGGA,071529.000,4647.772,N,00924.047,E,1,00,0.0,671.172,M,0.0,M,,*6F
$GPVTG,0.000,T,0,M,2.325,N,4.306,K*57
$GPGSA,A,3,,,,,,,,,,,,,0.0,0.0,0.0*32
$GPRMC,071530.000,A,4647.772,N,00924.049,E,1.85,0.00,030911,,*04
$GPGGA,071530.000,4647.772,N,00924.049,E,1,00,0.0,671.234,M,0.0,M,,*68
$GPVTG,0.000,T,0,M,1.854,N,3.433,K*5F
$GPGSA,A,3,,,,,,,,,,,,,0.0,0.0,0.0*32
$GPRMC,071531.000,A,4647.773,N,00924.049,E,1.04,0.00,030911,,*0D
$GPGGA,071531.000,4647.773,N,00924.049,E,1,00,0.0,670.766,M,0.0,M,,*6B
$GPVTG,0.000,T,0,M,1.041,N,1.928,K*56
$GPGSA,A,3,,,,,,,,,,,,,0.0,0.0,0.0*32
$GPRMC,071532.000,A,4647.773,N,00924.049,E,1.17,0.00,030911,,*0C
$GPGGA,071532.000,4647.773,N,00924.049,E,1,00,0.0,670.453,M,0.0,M,,*6D
$GPVTG,0.000,T,0,M,1.166,N,2.160,K*55
$GPGSA,A,3,,,,,,,,,,,,,0.0,0.0,0.0*32
$GPRMC,071533.000,A,4647.773,N,00924.050,E,1.18,0.00,030911,,*0A
$GPGGA,071533.000,4647.773,N,00924.050,E,1,00,0.0,670.344,M,0.0,M,,*65
$GPVTG,0.000,T,0,M,1.177,N,2.180,K*5B
$GPGSA,A,3,,,,,,,,,,,,,0.0,0.0,0.0*32
$GPRMC,071534.000,A,4647.773,N,00924.051,E,1.62,0.00,030911,,*01
$GPGGA,071534.000,4647.773,N,00924.051,E,1,00,0.0,670.266,M,0.0,M,,*62
$GPVTG,0.000,T,0,M,1.618,N,2.996,K*5A
$GPGSA,A,3,,,,,,,,,,,,,0.0,0.0,0.0*32
$GPRMC,071535.000,A,4647.773,N,00924.051,E,2.10,0.00,030911,,*06
$GPGGA,071535.000,4647.773,N,00924.051,E,1,00,0.0,670.328,M,0.0,M,,*68
$GPVTG,0.000,T,0,M,2.098,N,3.885,K*55
$GPGSA,A,3,,,,,,,,,,,,,0.0,0.0,0.0*32
$GPRMC,071536.000,A,4647.772,N,00924.053,E,3.58,0.00,030911,,*0B
$GPGGA,071536.000,4647.772,N,00924.053,E,1,00,0.0,670.188,M,0.0,M,,*60
$GPVTG,0.000,T,0,M,3.576,N,6.623,K*56
$GPGSA,A,3,,,,,,,,,,,,,0.0,0.0,0.0*32
