$GPRMC,180448.000,A,4711.089,N,00854.666,E,0.00,0.00,030717,,*0D
$GPGGA,180448.000,4711.089,N,00854.666,E,1,00,0.0,0.000,M,0.0,M,,*60
$GPGSA,A,3,,,,,,,,,,,,,0.0,0.0,0.0*32
$GPRMC,180451.000,A,4711.090,N,00854.666,E,0.00,0.00,030717,,*0D
$GPGGA,180451.000,4711.090,N,00854.666,E,1,00,0.0,0.000,M,0.0,M,,*60
$GPGSA,A,3,,,,,,,,,,,,,0.0,0.0,0.0*32
$GPRMC,180452.000,A,4711.092,N,00854.667,E,0.00,0.00,030717,,*0D
$GPGGA,180452.000,4711.092,N,00854.667,E,1,00,0.0,0.000,M,0.0,M,,*60
$GPGSA,A,3,,,,,,,,,,,,,0.0,0.0,0.0*32
$GPRMC,180454.000,A,4711.093,N,00854.668,E,0.00,0.00,030717,,*05
$GPGGA,180454.000,4711.093,N,00854.668,E,1,00,0.0,0.000,M,0.0,M,,*68
$GPGSA,A,3,,,,,,,,,,,,,0.0,0.0,0.0*32
$GPRMC,180455.000,A,4711.094,N,00854.668,E,0.00,0.00,030717,,*03
$GPGGA,180455.000,4711.094,N,00854.668,E,1,00,0.0,0.000,M,0.0,M,,*6E
$GPGSA,A,3,,,,,,,,,,,,,0.0,0.0,0.0*32
$GPRMC,180456.000,A,4711.095,N,00854.668,E,0.00,0.00,030717,,*01
$GPGGA,180456.000,4711.095,N,00854.668,E,1,00,0.0,0.000,M,0.0,M,,*6C
$GPGSA,A,3,,,,,,,,,,,,,0.0,0.0,0.0*32
$GPRMC,180458.000,A,4711.096,N,00854.669,E,0.00,0.00,030717,,*0D
$GPGGA,180458.000,4711.096,N,00854.669,E,1,00,0.0,0.000,M,0.0,M,,*60
$GPGSA,A,3,,,,,,,,,,,,,0.0,0.0,0.0*32
$GPRMC,180459.000,A,4711.097,N,00854.669,E,0.00,0.00,030717,,*0D
$GPGGA,180459.000,4711.097,N,00854.669,E,1,00,0.0,0.000,M,0.0,M,,*60
$GPGSA,A,3,,,,,,,,,,,,,0.0,0.0,0.0*32
$GPRMC,180501.000,A,4711.098,N,00854.670,E,0.00,0.00,030717,,*06
$GPGGA,180501.000,4711.098,N,00854.670,E,1,00,0.0,0.000,M,0.0,M,,*6B
$GPGSA,A,3,,,,,,,,,,,,,0.0,0.0,0.0*32
$GPRMC,180502.000,A,4711.099,N,00854.671,E,0.00,0.00,030717,,*05
$GPGGA,180502.000,4711.099,N,00854.671,E,1,00,0.0,0.000,M,0.0,M,,*68
$GPGSA,A,3,,,,,,,,,,,,,0.0,0.0,0.0*32
$GPRMC,180503.000,A,4711.100,N,00854.671,E,0.00,0.00,030717,,*05
$GPGGA,180503.000,4711.100,N,00854.671,E,1,00,0.0,0.000,M,0.0,M,,*68
$GPGSA,A,3,,,,,,,,,,,,,0.0,0.0,0.0*32
$GPRMC,180505.000,A,4711.101,N,00854.671,E,0.00,0.00,030717,,*02
$GPGGA,180505.000,4711.101,N,00854.671,E,1,00,0.0,0.000,M,0.0,M,,*6F
$GPGSA,A,3,,,,,,,,,,,,,0.0,0.0,0.0*32
$GPRMC,180506.000,A,4711.102,N,00854.672,E,0.00,0.00,030717,,*01
$GPGGA,180506.000,4711.102,N,00854.672,E,1,00,0.0,0.000,M,0.0,M,,*6C
$GPGSA,A,3,,,,,,,,,,,,,0.0,0.0,0.0*32
$GPRMC,180508.000,A,4711.103,N,00854.673,E,0.00,0.00,030717,,*0F
$GPGGA,180508.000,4711.103,N,00854.673,E,1,00,0.0,0.000,M,0.0,M,,*62
$GPGSA,A,3,,,,,,,,,,,,,0.0,0.0,0.0*32
$GPRMC,180509.000,A,4711.105,N,00854.674,E,0.00,0.00,030717,,*0F
$GPGGA,180509.000,4711.105,N,00854.674,E,1,00,0.0,0.000,M,0.0,M,,*62
$GPGSA,A,3,,,,,,,,,,,,,0.0,0.0,0.0*32
$GPRMC,180511.000,A,4711.106,N,00854.674,E,0.00,0.00,030717,,*05
$GPGGA,180511.000,4711.106,N,00854.674,E,1,00,0.0,0.000,M,0.0,M,,*68
$GPGSA,A,3,,,,,,,,,,,,,0.0,0.0,0.0*32
$GPRMC,180513.000,A,4711.107,N,00854.674,E,0.00,0.00,030717,,*06
$GPGGA,180513.000,4711.107,N,00854.674,E,1,00,0.0,0.000,M,0.0,M,,*6B
$GPGSA,A,3,,,,,,,,,,,,,0.0,0.0,0.0*32
$GPRMC,180515.000,A,4711.107,N,00854.675,E,0.00,0.00,030717,,*01
$GPGGA,180515.000,4711.107,N,00854.675,E,1,00,0.0,0.000,M,0.0,M,,*6C
$GPGSA,A,3,,,,,,,,,,,,,0.0,0.0,0.0*32
$GPRMC,180516.000,A,4711.109,N,00854.676,E,0.00,0.00,030717,,*0F
$GPGGA,180516.000,4711.109,N,00854.676,E,1,00,0.0,0.000,M,0.0,M,,*62
$GPGSA,A,3,,,,,,,,,,,,,0.0,0.0,0.0*32
$GPRMC,180518.000,A,4711.110,N,00854.677,E,0.00,0.00,030717,,*08
$GPGGA,180518.000,4711.110,N,00854.677,E,1,00,0.0,0.000,M,0.0,M,,*65
$GPGSA,A,3,,,,,,,,,,,,,0.0,0.0,0.0*32
$GPRMC,180519.000,A,4711.111,N,00854.677,E,0.00,0.00,030717,,*08
$GPGGA,180519.000,4711.111,N,00854.677,E,1,00,0.0,0.000,M,0.0,M,,*65
$GPGSA,A,3,,,,,,,,,,,,,0.0,0.0,0.0*32
$GPRMC,180521.000,A,4711.112,N,00854.677,E,0.00,0.00,030717,,*00
$GPGGA,180521.000,4711.112,N,00854.677,E,1,00,0.0,0.000,M,0.0,M,,*6D
$GPGSA,A,3,,,,,,,,,,,,,0.0,0.0,0.0*32
$GPRMC,180522.000,A,4711.114,N,00854.677,E,0.00,0.00,030717,,*05
$GPGGA,180522.000,4711.114,N,00854.677,E,1,00,0.0,0.000,M,0.0,M,,*68
$GPGSA,A,3,,,,,,,,,,,,,0.0,0.0,0.0*32
$GPRMC,180523.000,A,4711.114,N,00854.677,E,0.00,0.00,030717,,*04
$GPGGA,180523.000,4711.114,N,00854.677,E,1,00,0.0,0.000,M,0.0,M,,*69
$GPGSA,A,3,,,,,,,,,,,,,0.0,0.0,0.0*32
$GPRMC,180525.000,A,4711.115,N,00854.677,E,0.00,0.00,030717,,*03
$GPGGA,180525.000,4711.115,N,00854.677,E,1,00,0.0,0.000,M,0.0,M,,*6E
$GPGSA,A,3,,,,,,,,,,,,,0.0,0.0,0.0*32
$GPRMC,180526.000,A,4711.116,N,00854.678,E,0.00,0.00,030717,,*0C
$GPGGA,180526.000,4711.116,N,00854.678,E,1,00,0.0,0.000,M,0.0,M,,*61
$GPGSA,A,3,,,,,,,,,,,,,0.0,0.0,0.0*32
$GPRMC,180528.000,A,4711.117,N,00854.677,E,0.00,0.00,030717,,*0C
$GPGGA,180528.000,4711.117,N,00854.677,E,1,00,0.0,0.000,M,0.0,M,,*61
$GPGSA,A,3,,,,,,,,,,,,,0.0,0.0,0.0*32
$GPRMC,180529.000,A,4711.119,N,00854.678,E,0.00,0.00,030717,,*0C
$GPGGA,180529.000,4711.119,N,00854.678,E,1,00,0.0,0.000,M,0.0,M,,*61
$GPGSA,A,3,,,,,,,,,,,,,0.0,0.0,0.0*32
$GPRMC,180531.000,A,4711.120,N,00854.678,E,0.00,0.00,030717,,*0F
$GPGGA,180531.000,4711.120,N,00854.678,E,1,00,0.0,0.000,M,0.0,M,,*62
$GPGSA,A,3,,,,,,,,,,,,,0.0,0.0,0.0*32
$GPRMC,180533.000,A,4711.121,N,00854.678,E,0.00,0.00,030717,,*0C
$GPGGA,180533.000,4711.121,N,00854.678,E,1,00,0.0,0.000,M,0.0,M,,*61
$GPGSA,A,3,,,,,,,,,,,,,0.0,0.0,0.0*32
$GPRMC,180534.000,A,4711.122,N,00854.678,E,0.00,0.00,030717,,*08
$GPGGA,180534.000,4711.122,N,00854.678,E,1,00,0.0,0.000,M,0.0,M,,*65
$GPGSA,A,3,,,,,,,,,,,,,0.0,0.0,0.0*32
$GPRMC,180536.000,A,4711.123,N,00854.678,E,0.00,0.00,030717,,*0B
$GPGGA,180536.000,4711.123,N,00854.678,E,1,00,0.0,0.000,M,0.0,M,,*66
$GPGSA,A,3,,,,,,,,,,,,,0.0,0.0,0.0*32
$GPRMC,180537.000,A,4711.124,N,00854.676,E,0.00,0.00,030717,,*03
$GPGGA,180537.000,4711.124,N,00854.676,E,1,00,0.0,0.000,M,0.0,M,,*6E
$GPGSA,A,3,,,,,,,,,,,,,0.0,0.0,0.0*32
$GPRMC,180539.000,A,4711.124,N,00854.675,E,0.00,0.00,030717,,*0E
$GPGGA,180539.000,4711.124,N,00854.675,E,1,00,0.0,0.000,M,0.0,M,,*63
$GPGSA,A,3,,,,,,,,,,,,,0.0,0.0,0.0*32
$GPRMC,180541.000,A,4711.125,N,00854.674,E,0.00,0.00,030717,,*01
$GPGGA,180541.000,4711.125,N,00854.674,E,1,00,0.0,0.000,M,0.0,M,,*6C
$GPGSA,A,3,,,,,,,,,,,,,0.0,0.0,0.0*32
$GPRMC,180542.000,A,4711.124,N,00854.670,E,0.00,0.00,030717,,*07
$GPGGA,180542.000,4711.124,N,00854.670,E,1,00,0.0,0.000,M,0.0,M,,*6A
$GPGSA,A,3,,,,,,,,,,,,,0.0,0.0,0.0*32
$GPRMC,180545.000,A,4711.125,N,00854.669,E,0.00,0.00,030717,,*09
$GPGGA,180545.000,4711.125,N,00854.669,E,1,00,0.0,0.000,M,0.0,M,,*64
$GPGSA,A,3,,,,,,,,,,,,,0.0,0.0,0.0*32
$GPRMC,180546.000,A,4711.126,N,00854.667,E,0.00,0.00,030717,,*07
$GPGGA,180546.000,4711.126,N,00854.667,E,1,00,0.0,0.000,M,0.0,M,,*6A
$GPGSA,A,3,,,,,,,,,,,,,0.0,0.0,0.0*32
$GPRMC,180548.000,A,4711.127,N,00854.666,E,0.00,0.00,030717,,*09
$GPGGA,180548.000,4711.127,N,00854.666,E,1,00,0.0,0.000,M,0.0,M,,*64
$GPGSA,A,3,,,,,,,,,,,,,0.0,0.0,0.0*32
$GPRMC,180549.000,A,4711.127,N,00854.664,E,0.00,0.00,030717,,*0A
$GPGGA,180549.000,4711.127,N,00854.664,E,1,00,0.0,0.000,M,0.0,M,,*67
$GPGSA,A,3,,,,,,,,,,,,,0.0,0.0,0.0*32
$GPRMC,180551.000,A,4711.127,N,00854.663,E,0.00,0.00,030717,,*04
$GPGGA,180551.000,4711.127,N,00854.663,E,1,00,0.0,0.000,M,0.0,M,,*69
$GPGSA,A,3,,,,,,,,,,,,,0.0,0.0,0.0*32
$GPRMC,180552.000,A,4711.127,N,00854.661,E,0.00,0.00,030717,,*05
$GPGGA,180552.000,4711.127,N,00854.661,E,1,00,0.0,0.000,M,0.0,M,,*68
$GPGSA,A,3,,,,,,,,,,,,,0.0,0.0,0.0*32
$GPRMC,180554.000,A,4711.127,N,00854.660,E,0.00,0.00,030717,,*02
$GPGGA,180554.000,4711.127,N,00854.660,E,1,00,0.0,0.000,M,0.0,M,,*6F
$GPGSA,A,3,,,,,,,,,,,,,0.0,0.0,0.0*32
$GPRMC,180555.000,A,4711.127,N,00854.658,E,0.00,0.00,030717,,*08
$GPGGA,180555.000,4711.127,N,00854.658,E,1,00,0.0,0.000,M,0.0,M,,*65
$GPGSA,A,3,,,,,,,,,,,,,0.0,0.0,0.0*32
$GPRMC,180557.000,A,4711.128,N,00854.656,E,0.00,0.00,030717,,*0B
$GPGGA,180557.000,4711.128,N,00854.656,E,1,00,0.0,0.000,M,0.0,M,,*66
$GPGSA,A,3,,,,,,,,,,,,,0.0,0.0,0.0*32
$GPRMC,180558.000,A,4711.128,N,00854.655,E,0.00,0.00,030717,,*07
$GPGGA,180558.000,4711.128,N,00854.655,E,1,00,0.0,0.000,M,0.0,M,,*6A
$GPGSA,A,3,,,,,,,,,,,,,0.0,0.0,0.0*32
$GPRMC,180601.000,A,4711.129,N,00854.653,E,0.00,0.00,030717,,*0F
$GPGGA,180601.000,4711.129,N,00854.653,E,1,00,0.0,0.000,M,0.0,M,,*62
$GPGSA,A,3,,,,,,,,,,,,,0.0,0.0,0.0*32
$GPRMC,180602.000,A,4711.129,N,00854.651,E,0.00,0.00,030717,,*0E
$GPGGA,180602.000,4711.129,N,00854.651,E,1,00,0.0,0.000,M,0.0,M,,*63
$GPGSA,A,3,,,,,,,,,,,,,0.0,0.0,0.0*32
$GPRMC,180603.000,A,4711.129,N,00854.650,E,0.00,0.00,030717,,*0E
$GPGGA,180603.000,4711.129,N,00854.650,E,1,00,0.0,0.000,M,0.0,M,,*63
$GPGSA,A,3,,,,,,,,,,,,,0.0,0.0,0.0*32
$GPRMC,180605.000,A,4711.129,N,00854.647,E,0.00,0.00,030717,,*0E
$GPGGA,180605.000,4711.129,N,00854.647,E,1,00,0.0,0.000,M,0.0,M,,*63
$GPGSA,A,3,,,,,,,,,,,,,0.0,0.0,0.0*32
$GPRMC,180607.000,A,4711.130,N,00854.645,E,0.00,0.00,030717,,*06
$GPGGA,180607.000,4711.130,N,00854.645,E,1,00,0.0,0.000,M,0.0,M,,*6B
$GPGSA,A,3,,,,,,,,,,,,,0.0,0.0,0.0*32
$GPRMC,180608.000,A,4711.130,N,00854.644,E,0.00,0.00,030717,,*08
$GPGGA,180608.000,4711.130,N,00854.644,E,1,00,0.0,0.000,M,0.0,M,,*65
$GPGSA,A,3,,,,,,,,,,,,,0.0,0.0,0.0*32
$GPRMC,180609.000,A,4711.130,N,00854.644,E,0.00,0.00,030717,,*09
$GPGGA,180609.000,4711.130,N,00854.644,E,1,00,0.0,0.000,M,0.0,M,,*64
$GPGSA,A,3,,,,,,,,,,,,,0.0,0.0,0.0*32
$GPRMC,180610.000,A,4711.130,N,00854.642,E,0.00,0.00,030717,,*07
$GPGGA,180610.000,4711.130,N,00854.642,E,1,00,0.0,0.000,M,0.0,M,,*6A
$GPGSA,A,3,,,,,,,,,,,,,0.0,0.0,0.0*32
$GPRMC,180612.000,A,4711.129,N,00854.639,E,0.00,0.00,030717,,*01
$GPGGA,180612.000,4711.129,N,00854.639,E,1,00,0.0,0.000,M,0.0,M,,*6C
$GPGSA,A,3,,,,,,,,,,,,,0.0,0.0,0.0*32
$GPRMC,180614.000,A,4711.130,N,00854.638,E,0.00,0.00,030717,,*0E
$GPGGA,180614.000,4711.130,N,00854.638,E,1,00,0.0,0.000,M,0.0,M,,*63
$GPGSA,A,3,,,,,,,,,,,,,0.0,0.0,0.0*32
$GPRMC,180616.000,A,4711.131,N,00854.636,E,0.00,0.00,030717,,*03
$GPGGA,180616.000,4711.131,N,00854.636,E,1,00,0.0,0.000,M,0.0,M,,*6E
$GPGSA,A,3,,,,,,,,,,,,,0.0,0.0,0.0*32
$GPRMC,180617.000,A,4711.131,N,00854.634,E,0.00,0.00,030717,,*00
$GPGGA,180617.000,4711.131,N,00854.634,E,1,00,0.0,0.000,M,0.0,M,,*6D
$GPGSA,A,3,,,,,,,,,,,,,0.0,0.0,0.0*32
$GPRMC,180618.000,A,4711.131,N,00854.633,E,0.00,0.00,030717,,*08
$GPGGA,180618.000,4711.131,N,00854.633,E,1,00,0.0,0.000,M,0.0,M,,*65
$GPGSA,A,3,,,,,,,,,,,,,0.0,0.0,0.0*32
$GPRMC,180620.000,A,4711.132,N,00854.632,E,0.00,0.00,030717,,*01
$GPGGA,180620.000,4711.132,N,00854.632,E,1,00,0.0,0.000,M,0.0,M,,*6C
$GPGSA,A,3,,,,,,,,,,,,,0.0,0.0,0.0*32
$GPRMC,180622.000,A,4711.133,N,00854.630,E,0.00,0.00,030717,,*00
$GPGGA,180622.000,4711.133,N,00854.630,E,1,00,0.0,0.000,M,0.0,M,,*6D
$GPGSA,A,3,,,,,,,,,,,,,0.0,0.0,0.0*32
$GPRMC,180623.000,A,4711.133,N,00854.629,E,0.00,0.00,030717,,*09
$GPGGA,180623.000,4711.133,N,00854.629,E,1,00,0.0,0.000,M,0.0,M,,*64
$GPGSA,A,3,,,,,,,,,,,,,0.0,0.0,0.0*32
$GPRMC,180624.000,A,4711.134,N,00854.627,E,0.00,0.00,030717,,*07
$GPGGA,180624.000,4711.134,N,00854.627,E,1,00,0.0,0.000,M,0.0,M,,*6A
$GPGSA,A,3,,,,,,,,,,,,,0.0,0.0,0.0*32
$GPRMC,180626.000,A,4711.134,N,00854.625,E,0.00,0.00,030717,,*07
$GPGGA,180626.000,4711.134,N,00854.625,E,1,00,0.0,0.000,M,0.0,M,,*6A
$GPGSA,A,3,,,,,,,,,,,,,0.0,0.0,0.0*32
$GPRMC,180627.000,A,4711.134,N,00854.624,E,0.00,0.00,030717,,*07
$GPGGA,180627.000,4711.134,N,00854.624,E,1,00,0.0,0.000,M,0.0,M,,*6A
$GPGSA,A,3,,,,,,,,,,,,,0.0,0.0,0.0*32
$GPRMC,180628.000,A,4711.134,N,00854.623,E,0.00,0.00,030717,,*0F
$GPGGA,180628.000,4711.134,N,00854.623,E,1,00,0.0,0.000,M,0.0,M,,*62
$GPGSA,A,3,,,,,,,,,,,,,0.0,0.0,0.0*32
$GPRMC,180630.000,A,4711.135,N,00854.621,E,0.00,0.00,030717,,*05
$GPGGA,180630.000,4711.135,N,00854.621,E,1,00,0.0,0.000,M,0.0,M,,*68
$GPGSA,A,3,,,,,,,,,,,,,0.0,0.0,0.0*32
$GPRMC,180632.000,A,4711.135,N,00854.620,E,0.00,0.00,030717,,*06
$GPGGA,180632.000,4711.135,N,00854.620,E,1,00,0.0,0.000,M,0.0,M,,*6B
$GPGSA,A,3,,,,,,,,,,,,,0.0,0.0,0.0*32
$GPRMC,180633.000,A,4711.135,N,00854.619,E,0.00,0.00,030717,,*0D
$GPGGA,180633.000,4711.135,N,00854.619,E,1,00,0.0,0.000,M,0.0,M,,*60
$GPGSA,A,3,,,,,,,,,,,,,0.0,0.0,0.0*32
$GPRMC,180634.000,A,4711.136,N,00854.617,E,0.00,0.00,030717,,*07
$GPGGA,180634.000,4711.136,N,00854.617,E,1,00,0.0,0.000,M,0.0,M,,*6A
$GPGSA,A,3,,,,,,,,,,,,,0.0,0.0,0.0*32
$GPRMC,180635.000,A,4711.136,N,00854.616,E,0.00,0.00,030717,,*07
$GPGGA,180635.000,4711.136,N,00854.616,E,1,00,0.0,0.000,M,0.0,M,,*6A
$GPGSA,A,3,,,,,,,,,,,,,0.0,0.0,0.0*32
$GPRMC,180637.000,A,4711.135,N,00854.614,E,0.00,0.00,030717,,*04
$GPGGA,180637.000,4711.135,N,00854.614,E,1,00,0.0,0.000,M,0.0,M,,*69
$GPGSA,A,3,,,,,,,,,,,,,0.0,0.0,0.0*32
$GPRMC,180639.000,A,4711.136,N,00854.612,E,0.00,0.00,030717,,*0F
$GPGGA,180639.000,4711.136,N,00854.612,E,1,00,0.0,0.000,M,0.0,M,,*62
$GPGSA,A,3,,,,,,,,,,,,,0.0,0.0,0.0*32
$GPRMC,180641.000,A,4711.136,N,00854.610,E,0.00,0.00,030717,,*02
$GPGGA,180641.000,4711.136,N,00854.610,E,1,00,0.0,0.000,M,0.0,M,,*6F
$GPGSA,A,3,,,,,,,,,,,,,0.0,0.0,0.0*32
$GPRMC,180643.000,A,4711.137,N,00854.608,E,0.00,0.00,030717,,*08
$GPGGA,180643.000,4711.137,N,00854.608,E,1,00,0.0,0.000,M,0.0,M,,*65
$GPGSA,A,3,,,,,,,,,,,,,0.0,0.0,0.0*32
$GPRMC,180644.000,A,4711.137,N,00854.607,E,0.00,0.00,030717,,*00
$GPGGA,180644.000,4711.137,N,00854.607,E,1,00,0.0,0.000,M,0.0,M,,*6D
$GPGSA,A,3,,,,,,,,,,,,,0.0,0.0,0.0*32
$GPRMC,180646.000,A,4711.138,N,00854.604,E,0.00,0.00,030717,,*0E
$GPGGA,180646.000,4711.138,N,00854.604,E,1,00,0.0,0.000,M,0.0,M,,*63
$GPGSA,A,3,,,,,,,,,,,,,0.0,0.0,0.0*32
$GPRMC,180648.000,A,4711.139,N,00854.603,E,0.00,0.00,030717,,*06
$GPGGA,180648.000,4711.139,N,00854.603,E,1,00,0.0,0.000,M,0.0,M,,*6B
$GPGSA,A,3,,,,,,,,,,,,,0.0,0.0,0.0*32
$GPRMC,180649.000,A,4711.139,N,00854.603,E,0.00,0.00,030717,,*07
$GPGGA,180649.000,4711.139,N,00854.603,E,1,00,0.0,0.000,M,0.0,M,,*6A
$GPGSA,A,3,,,,,,,,,,,,,0.0,0.0,0.0*32
$GPRMC,180651.000,A,4711.139,N,00854.600,E,0.00,0.00,030717,,*0D
$GPGGA,180651.000,4711.139,N,00854.600,E,1,00,0.0,0.000,M,0.0,M,,*60
$GPGSA,A,3,,,,,,,,,,,,,0.0,0.0,0.0*32
$GPRMC,180653.000,A,4711.139,N,00854.597,E,0.00,0.00,030717,,*02
$GPGGA,180653.000,4711.139,N,00854.597,E,1,00,0.0,0.000,M,0.0,M,,*6F
$GPGSA,A,3,,,,,,,,,,,,,0.0,0.0,0.0*32
$GPRMC,180655.000,A,4711.140,N,00854.596,E,0.00,0.00,030717,,*0B
$GPGGA,180655.000,4711.140,N,00854.596,E,1,00,0.0,0.000,M,0.0,M,,*66
$GPGSA,A,3,,,,,,,,,,,,,0.0,0.0,0.0*32
$GPRMC,180656.000,A,4711.140,N,00854.595,E,0.00,0.00,030717,,*0B
$GPGGA,180656.000,4711.140,N,00854.595,E,1,00,0.0,0.000,M,0.0,M,,*66
$GPGSA,A,3,,,,,,,,,,,,,0.0,0.0,0.0*32
$GPRMC,180657.000,A,4711.140,N,00854.594,E,0.00,0.00,030717,,*0B
$GPGGA,180657.000,4711.140,N,00854.594,E,1,00,0.0,0.000,M,0.0,M,,*66
$GPGSA,A,3,,,,,,,,,,,,,0.0,0.0,0.0*32
$GPRMC,180658.000,A,4711.140,N,00854.593,E,0.00,0.00,030717,,*03
$GPGGA,180658.000,4711.140,N,00854.593,E,1,00,0.0,0.000,M,0.0,M,,*6E
$GPGSA,A,3,,,,,,,,,,,,,0.0,0.0,0.0*32
$GPRMC,180700.000,A,4711.141,N,00854.591,E,0.00,0.00,030717,,*0C
$GPGGA,180700.000,4711.141,N,00854.591,E,1,00,0.0,0.000,M,0.0,M,,*61
$GPGSA,A,3,,,,,,,,,,,,,0.0,0.0,0.0*32
$GPRMC,180701.000,A,4711.141,N,00854.590,E,0.00,0.00,030717,,*0C
$GPGGA,180701.000,4711.141,N,00854.590,E,1,00,0.0,0.000,M,0.0,M,,*61
$GPGSA,A,3,,,,,,,,,,,,,0.0,0.0,0.0*32
$GPRMC,180703.000,A,4711.141,N,00854.587,E,0.00,0.00,030717,,*08
$GPGGA,180703.000,4711.141,N,00854.587,E,1,00,0.0,0.000,M,0.0,M,,*65
$GPGSA,A,3,,,,,,,,,,,,,0.0,0.0,0.0*32
$GPRMC,180704.000,A,4711.141,N,00854.586,E,0.00,0.00,030717,,*0E
$GPGGA,180704.000,4711.141,N,00854.586,E,1,00,0.0,0.000,M,0.0,M,,*63
$GPGSA,A,3,,,,,,,,,,,,,0.0,0.0,0.0*32
$GPRMC,180706.000,A,4711.141,N,00854.585,E,0.00,0.00,030717,,*0F
$GPGGA,180706.000,4711.141,N,00854.585,E,1,00,0.0,0.000,M,0.0,M,,*62
$GPGSA,A,3,,,,,,,,,,,,,0.0,0.0,0.0*32
